,address,code_district,code_suburb,id,number,total_bases,last_updated,longitude,latitude,coordinates
0,"Calle Miguel Moya nº 1,",01,015,1406,2,27,2024-03-15 08:58:01,-3.70569,40.4204,"(-3.70569, 40.4204)"
1,"Plaza Conde Surchill, 4 ,",07,072,1407,3,19,2024-03-15 08:58:01,-3.7072537,40.4303223,"(-3.7072537, 40.4303223)"
2,"Calle Fuencarral nº 106,",01,014,1409,5,27,2024-03-15 08:58:01,-3.7021354,40.4285212,"(-3.7021354, 40.4285212)"
3,"Calle Hortaleza nº 63,",01,014,1410,6,19,2024-03-15 08:58:01,-3.698447,40.424148,"(-3.698447, 40.424148)"
4,"Calle Hortaleza nº 75,",01,014,1411,7,19,2024-03-15 08:58:01,-3.6977715,40.4251906,"(-3.6977715, 40.4251906)"
5,"Plaza de Alonso Martínez nº 6,",07,074,1412,8,24,2024-03-15 08:58:01,-3.6954403,40.4278682,"(-3.6954403, 40.4278682)"
6,"Plaza de San Miguel nº 10,",01,011,1413,9,24,2024-03-15 08:58:01,-3.7095084,40.4156057,"(-3.7095084, 40.4156057)"
7,"Calle Marqués de la Ensenada (junto a edif, Centro Colón),",01,014,1414,10,23,2024-03-15 08:58:01,-3.692104,40.425403,"(-3.692104, 40.425403)"
8,"Calle San Andrés nº 18 - 20,",01,015,1415,11,23,2024-03-15 08:58:01,-3.7036,40.427,"(-3.7036, 40.427)"
9,"Calle San Bernardo nº 85 - 87,",01,015,1416,12,27,2024-03-15 08:58:01,-3.7061406,40.4284667,"(-3.7061406, 40.4284667)"
10,"Calle Conde Duque nº 22,",01,015,1417,13,23,2024-03-15 08:58:01,-3.7105,40.4273,"(-3.7105, 40.4273)"
11,"Ventura Rodríguez, 3,",09,092,1418,14,27,2024-03-15 08:58:01,-3.7133069,40.4260425,"(-3.7133069, 40.4260425)"
12,"Calle norte nº 10,",01,015,1419,15,19,2024-03-15 08:58:01,-3.7074453,40.4262383,"(-3.7074453, 40.4262383)"
13,"Calle San Bernardo nº 22,",01,015,1420,16,19,2024-03-15 08:58:01,-3.7074808485065,40.4229374,"(-3.7074808485065, 40.4229374)"
14,"Plaza de Carlos Cambronero nº 2,",01,015,1421,17,23,2024-03-15 08:58:01,-3.704166,40.423126,"(-3.704166, 40.423126)"
15,"Plaza de Pedro Zerolo nº 20,",01,014,1422,18,24,2024-03-15 08:58:01,-3.6996776,40.4209251,"(-3.6996776, 40.4209251)"
16,"Calle Prim nº 4,",01,014,1423,19,28,2024-03-15 08:58:01,-3.6954983,40.4218616,"(-3.6954983, 40.4218616)"
17,"Calle Alcalá nº 48,",01,013,1424,20A,27,2024-03-15 08:58:01,-3.6952465,40.4188076,"(-3.6952465, 40.4188076)"
18,"Calle Jacometrezo nº 3,",01,016,1425,22,3,2024-03-15 08:58:01,-3.7065376,40.4200783,"(-3.7065376, 40.4200783)"
19,"Plaza de Santo Domingo nº 1,",01,011,1426,23,24,2024-03-15 08:58:01,-3.708249,40.4202595,"(-3.708249, 40.4202595)"
20,"Calle Carlos III nº 1,",01,011,1427,24,18,2024-03-15 08:58:01,-3.7106495,40.417767,"(-3.7106495, 40.417767)"
21,"Plaza de Celenque nº 1,",01,016,1428,25A,24,2024-03-15 08:58:01,-3.7057791,40.4173703,"(-3.7057791, 40.4173703)"
22,"Plaza de Celenque nº 1,",01,016,1429,25B,24,2024-03-15 08:58:01,-3.7058976,40.4173687,"(-3.7058976, 40.4173687)"
23,"Plaza de las Salesas nº 2,",01,014,1430,26,27,2024-03-15 08:58:01,-3.6945,40.4239,"(-3.6945, 40.4239)"
24,"Calle Jesús nº 6,",01,013,1431,27,27,2024-03-15 08:58:01,-3.6957,40.4133,"(-3.6957, 40.4133)"
25,"Calle Alcalá nº 28,",01,013,1432,28,18,2024-03-15 08:58:01,-3.6984583,40.41806,"(-3.6984583, 40.41806)"
26,"Calle del Marqués de Cubas nº 25,",01,013,1433,29,23,2024-03-15 08:58:01,-3.6957434,40.4163838,"(-3.6957434, 40.4163838)"
27,"Calle Pavía nº 4,",01,011,1434,30,27,2024-03-15 08:58:01,-3.711504,40.4192095,"(-3.711504, 40.4192095)"
28,"Calle Mayor nº 16,",01,016,1435,31,27,2024-03-15 08:58:01,-3.7068969,40.4163638,"(-3.7068969, 40.4163638)"
29,"Plaza de la Provincia (esquina calle Gerona),",01,016,1436,32,18,2024-03-15 08:58:01,-3.7061032,40.4150099,"(-3.7061032, 40.4150099)"
30,"Calle Carretas nº 3,",01,016,1437,33,23,2024-03-15 08:58:01,-3.7033305,40.4165873,"(-3.7033305, 40.4165873)"
31,"Plaza de Jacinto Benavente,",01,016,1438,34,24,2024-03-15 08:58:01,-3.7036825,40.4146755,"(-3.7036825, 40.4146755)"
32,"Plaza del Cordón nº1,",01,011,1439,35,24,2024-03-15 08:58:01,-3.7103285,40.4141931,"(-3.7103285, 40.4141931)"
33,"Plaza de Ramales nº1,",01,011,1440,36,24,2024-03-15 08:58:01,-3.71183,40.4168,"(-3.71183, 40.4168)"
34,"Plaza de San Francisco,",01,011,1441,37,24,2024-03-15 08:58:01,-3.714113,40.4108,"(-3.714113, 40.4108)"
35,"Carrera de San Francisco enfrente del nº 2 ,",01,011,1442,38,27,2024-03-15 08:58:01,-3.7115898,40.4113586,"(-3.7115898, 40.4113586)"
36,"Plaza de la Cebada nº 3,",01,011,1443,39,31,2024-03-15 08:58:01,-3.7088337,40.4112744,"(-3.7088337, 40.4112744)"
37,"Plaza del Conde de Romanones nº 2,",01,012,1444,40,18,2024-03-15 08:58:01,-3.7047949666162405,40.413778406369765,"(-3.7047949666162405, 40.413778406369765)"
38,"Calle Atocha nº 56,",01,012,1445,41,19,2024-03-15 08:58:01,-3.6991147,40.4122047,"(-3.6991147, 40.4122047)"
39,"Calle Santa Isabel 32,",01,012,1446,42,27,2024-03-15 08:58:01,-3.6982922,40.4108488,"(-3.6982922, 40.4108488)"
40,"Calle Jesús y María, 38 ,",01,012,1447,43,18,2024-03-15 08:58:01,-3.702471,40.4100387,"(-3.702471, 40.4100387)"
41,"Plaza Nelson Mandela, 44 ,",01,012,1448,44,19,2024-03-15 08:58:01,-3.7038640533106593,40.40979071254635,"(-3.7038640533106593, 40.40979071254635)"
42,"Puerta de Toledo 1 ,",01,012,1449,45,19,2024-03-15 08:58:01,-3.7111034,40.4068659,"(-3.7111034, 40.4068659)"
43,"Calle Ribera de Curtidores nº 28,",02,022,1450,46,27,2024-03-15 08:58:01,-3.7071259,40.4053153,"(-3.7071259, 40.4053153)"
44,"Plaza Embajadores, 7 ,",02,022,1451,47,24,2024-03-15 08:58:01,-3.7027998,40.4045772,"(-3.7027998, 40.4045772)"
45,"Glorieta de Embajadores nº 7,",01,012,1452,48,24,2024-03-15 08:58:01,-3.7020566,40.4054815,"(-3.7020566, 40.4054815)"
46,"Calle de Santa Isabel (esquina con plaza del Emperador Carlos V),",01,012,1454,50,24,2024-03-15 08:58:01,-3.6933463,40.4083684,"(-3.6933463, 40.4083684)"
47,"Ronda de Atocha (esquina con Plaza del Emperador Carlos V),",01,012,1455,51,26,2024-03-15 08:58:01,-3.6935205,40.4075606,"(-3.6935205, 40.4075606)"
48,"Plaza de Santa Ana nº 10,",01,013,1456,52,15,2024-03-15 08:58:01,-3.7007164,40.4144226,"(-3.7007164, 40.4144226)"
49,"Plazuela de Ana Diosdado,",01,012,1457,53,24,2024-03-15 08:58:01,-3.700754126389314,40.40830870823806,"(-3.700754126389314, 40.40830870823806)"
50,"Calle Barceló nº 9,",01,014,1458,54,19,2024-03-15 08:58:01,-3.700392997553259,40.426599101766264,"(-3.700392997553259, 40.426599101766264)"
51,"Plaza de San Ildefonso nº4,",01,015,1459,55,24,2024-03-15 08:58:01,-3.7020842,40.4239757,"(-3.7020842, 40.4239757)"
52,"Plaza del Carmen nº 1,",01,016,1460,56,23,2024-03-15 08:58:01,-3.7032414,40.4184192,"(-3.7032414, 40.4184192)"
53,"Calle Santa Cruz del Marcenado nº 26,",01,015,1461,57,23,2024-03-15 08:58:01,-3.7126299,40.4295658,"(-3.7126299, 40.4295658)"
54,"Calle Augusto Figueroa nº 33,",01,014,1462,58,27,2024-03-15 08:58:01,-3.6978583,40.4222783,"(-3.6978583, 40.4222783)"
55,"Calle Espíritu Santo nº 30,",01,015,1463,59,19,2024-03-15 08:58:01,-3.7043418,40.4255495,"(-3.7043418, 40.4255495)"
56,"Plaza de la Independencia, s/n ,",03,035,1464,60,23,2024-03-15 08:58:01,-3.688398,40.419752,"(-3.688398, 40.419752)"
57,"Calle O'Donnell nº 30,",03,034,1465,61,27,2024-03-15 08:58:01,-3.6753139,40.4214551,"(-3.6753139, 40.4214551)"
58,"Calle O'Donnell nº 48,",03,034,1466,62,27,2024-03-15 08:58:01,-3.6724968,40.4213148,"(-3.6724968, 40.4213148)"
59,"Calle Ibiza nº 64,",03,034,1467,63,23,2024-03-15 08:58:01,-3.6708959,40.4179237,"(-3.6708959, 40.4179237)"
60,"Calle Antonio Maura nº 13,",03,035,1468,65,24,2024-03-15 08:58:01,-3.689424797942769,40.4167014469994,"(-3.689424797942769, 40.4167014469994)"
61,"Calle Almadén 26,",01,013,1469,67,23,2024-03-15 08:58:01,-3.693225,40.4108472,"(-3.693225, 40.4108472)"
62,"Calle Espalter nº 3,",03,035,1470,68,19,2024-03-15 08:58:01,-3.6913232,40.4127692,"(-3.6913232, 40.4127692)"
63,"Avenida de Alfonso XII nº 54,",03,035,1471,69,27,2024-03-15 08:58:01,-3.688822,40.409808,"(-3.688822, 40.409808)"
64,"Avenida de Menéndez Pelayo nº 63,",03,035,1472,70,27,2024-03-15 08:58:01,-3.677872542327878,40.415382385574716,"(-3.677872542327878, 40.415382385574716)"
65,"Calle Doce de Octubre nº 28,",03,034,1473,71,23,2024-03-15 08:58:01,-3.6739,40.4161,"(-3.6739, 40.4161)"
66,"Calle Doctor Esquerdo nº 62,",03,036,1474,72,23,2024-03-15 08:58:01,-3.6696,40.4159,"(-3.6696, 40.4159)"
67,"Calle de los Astros, nº5 ,",03,033,1475,73,23,2024-03-15 08:58:01,-3.6687,40.4115,"(-3.6687, 40.4115)"
68,"Avenida de Menéndez Pelayo nº 69,",03,035,1476,74,26,2024-03-15 08:58:01,-3.676588763788984,40.41206290978386,"(-3.676588763788984, 40.41206290978386)"
69,"Avenida del Mediterráneo nº 19,",03,036,1478,76,24,2024-03-15 08:58:01,-3.675102,40.407271,"(-3.675102, 40.407271)"
70,"Plaza del Conde de Casal nº 8,",03,031,1479,77,18,2024-03-15 08:58:01,-3.6707132,40.4064784,"(-3.6707132, 40.4064784)"
71,"Calle Cerro de la Plata nº 4,",03,032,1480,78,23,2024-03-15 08:58:01,-3.6745240600494444,40.40063747422422,"(-3.6745240600494444, 40.40063747422422)"
72,"Avenida de Menéndez Pelayo nº 38,",03,031,1481,79,27,2024-03-15 08:58:01,-3.6804398243230696,40.405110193977585,"(-3.6804398243230696, 40.405110193977585)"
73,"Calle Claudio Moyano, nº5 ,",03,035,1484,81,24,2024-03-15 08:58:01,-3.691833220071059,40.40934261188139,"(-3.691833220071059, 40.40934261188139)"
74,"Calle Lira, nº1 ,",03,033,1485,82,23,2024-03-15 08:58:01,-3.6697526,40.4084556,"(-3.6697526, 40.4084556)"
75,"Calle Pío Baroja nº8,",03,036,1486,83,23,2024-03-15 08:58:01,-3.6744795,40.4132995,"(-3.6744795, 40.4132995)"
76,"Calle Doctor Esquerdo nº 191,",03,032,1487,84,23,2024-03-15 08:58:01,-3.672481575393678,40.40357156992851,"(-3.672481575393678, 40.40357156992851)"
77,"Avenida de Menéndez Pelayo, 9,",03,035,1488,85,27,2024-03-15 08:58:01,-3.679891,40.4213143,"(-3.679891, 40.4213143)"
78,"Paseo del Prado, 1B ,",01,013,1489,86,24,2024-03-15 08:58:01,-3.6933498,40.4186516,"(-3.6933498, 40.4186516)"
79,"Calle Ayala nº 46,",04,041,1490,87,23,2024-03-15 08:58:01,-3.6832566,40.427736,"(-3.6832566, 40.427736)"
80,"Calle Velázquez, 13 ,",04,046,1491,88,23,2024-03-15 08:58:01,-3.6838303,40.4313576,"(-3.6838303, 40.4313576)"
81,"Calle Ayala nº 104,",04,042,1492,89,23,2024-03-15 08:58:01,-3.6752024,40.4272582,"(-3.6752024, 40.4272582)"
82,"Calle Goya, 20 ,",04,041,1493,90,27,2024-03-15 08:58:01,-3.6838416,40.4251493,"(-3.6838416, 40.4251493)"
83,"Calle Hermosilla nº 71,",04,042,1494,91,23,2024-03-15 08:58:01,-3.6786285,40.426049,"(-3.6786285, 40.426049)"
84,"Calle Claudio Coello, 43 ,",04,041,1495,92,23,2024-03-15 08:58:01,-3.6865463,40.4262945,"(-3.6865463, 40.4262945)"
85,"Calle Goya (esquina calle Marqués de Zurgeña),",04,041,1496,93,23,2024-03-15 08:58:01,-3.6893361690338167,40.42575853342561,"(-3.6893361690338167, 40.42575853342561)"
86,"Paseo de Recoletos nº 20,",04,041,1497,94,23,2024-03-15 08:58:01,-3.690756,40.4232153,"(-3.690756, 40.4232153)"
87,"Calle Claudio Coello nº 19,",04,041,1498,95,23,2024-03-15 08:58:01,-3.6869293,40.4225428,"(-3.6869293, 40.4225428)"
88,"Calle Alcalá nº 111,",04,041,1499,96,27,2024-03-15 08:58:01,-3.682204798770403,40.42201515498424,"(-3.682204798770403, 40.42201515498424)"
89,"Avenida Menéndez Pelayo (esquina calle Alcalá),",04,042,1500,97,27,2024-03-15 08:58:01,-3.6802556,40.4225364,"(-3.6802556, 40.4225364)"
90,"Calle Narváez, 3 ,",04,042,1501,98,23,2024-03-15 08:58:01,-3.6757676,40.4241325,"(-3.6757676, 40.4241325)"
91,"Calle Alcántara, 4 ,",04,042,1502,99,23,2024-03-15 08:58:01,-3.6740178,40.4260391,"(-3.6740178, 40.4260391)"
92,"Calle Goya nº 99,",04,042,1503,100,26,2024-03-15 08:58:01,-3.67384,40.42478,"(-3.67384, 40.42478)"
93,"Calle Jorge Juán, 129 ,",04,042,1504,101,24,2024-03-15 08:58:01,-3.6696804,40.4230771,"(-3.6696804, 40.4230771)"
94,"Calle Alcalá nº 95,",04,041,1505,102,23,2024-03-15 08:58:01,-3.6842317,40.4211845,"(-3.6842317, 40.4211845)"
95,"Calle José Ortega y Gasset, 6 ,",04,046,1506,103,23,2024-03-15 08:58:01,-3.686744,40.43053,"(-3.686744, 40.43053)"
96,"Paseo de la Castellana nº 4,",04,041,1507,104,23,2024-03-15 08:58:01,-3.68958,40.42677,"(-3.68958, 40.42677)"
97,"Calle Serrano nº 46,",04,041,1508,105,23,2024-03-15 08:58:01,-3.6875418,40.4270832,"(-3.6875418, 40.4270832)"
98,"Calle Serrano nº 32,",04,041,1510,106B,19,2024-03-15 08:58:01,-3.68789,40.424776,"(-3.68789, 40.424776)"
99,"Calle Serrano nº 8,",04,041,1511,107,23,2024-03-15 08:58:01,-3.6883841104507464,40.42156087297841,"(-3.6883841104507464, 40.42156087297841)"
100,"Calle Mártires Concepcionistas nº 2,",04,042,1512,108,27,2024-03-15 08:58:01,-3.670652,40.427402,"(-3.670652, 40.427402)"
101,"Calle José Ortega y Gasset nº 30,",04,046,1513,109,23,2024-03-15 08:58:01,-3.6814521,40.4301245,"(-3.6814521, 40.4301245)"
102,"Paseo de Moret nº 1,",09,091,1514,110,23,2024-03-15 08:58:01,-3.7201021,40.434745,"(-3.7201021, 40.434745)"
103,"Calle Arcipreste de Hita nº 8,",07,071,1515,111A,23,2024-03-15 08:58:01,-3.7175248,40.4336027,"(-3.7175248, 40.4336027)"
104,"Calle Arcipreste de Hita nº 12,",07,071,1516,111B,23,2024-03-15 08:58:01,-3.7177434,40.433913,"(-3.7177434, 40.433913)"
105,"Paseo Moret, 9 ,",09,092,1517,112,23,2024-03-15 08:58:01,-3.724736,40.4326901,"(-3.724736, 40.4326901)"
106,"Paseo del Pintor Rosales frente al nº 38,",09,091,1518,113,24,2024-03-15 08:58:01,-3.7207263,40.427538,"(-3.7207263, 40.427538)"
107,"Calle Quintana nº 13,",09,092,1519,114,23,2024-03-15 08:58:01,-3.7174631,40.4278379,"(-3.7174631, 40.4278379)"
108,"Paseo de Pintor Rosales (esquina Marqués de Cerralbo),",09,092,1520,115,23,2024-03-15 08:58:01,-3.7170515055225373,40.42531476841791,"(-3.7170515055225373, 40.42531476841791)"
109,"Plaza de España nº16,",09,092,1521,116A,18,2024-03-15 08:58:01,-3.713043,40.423679,"(-3.713043, 40.423679)"
110,"Calle de los Reyes, nº10,",01,015,1522,116B,18,2024-03-15 08:58:01,-3.71046,40.423684,"(-3.71046, 40.423684)"
111,"Calle Altamirano nº 24,",09,092,1523,117,23,2024-03-15 08:58:01,-3.7188898,40.4309797,"(-3.7188898, 40.4309797)"
112,"Calle Juan Martínez el empeciado (esquina calle Bustamante) ,",02,026,1524,118,23,2024-03-15 08:58:01,-3.6882407,40.400781,"(-3.6882407, 40.400781)"
113,"Calle Méndez Álvaro nº 11,",02,027,1525,119,23,2024-03-15 08:58:01,-3.6862653,40.4012905,"(-3.6862653, 40.4012905)"
114,"Calle Palos de la Frontera nº 27,",02,026,1526,120,27,2024-03-15 08:58:01,-3.6948251018524214,40.403090451430614,"(-3.6948251018524214, 40.403090451430614)"
115,"Paseo de Santa María de la Cabeza nº 58,",02,026,1527,121,27,2024-03-15 08:58:01,-3.6986027,40.4017487,"(-3.6986027, 40.4017487)"
116,"Calle Santa Engracia nº 14,",07,074,1528,122,23,2024-03-15 08:58:01,-3.6963659,40.4295362,"(-3.6963659, 40.4295362)"
117,"Calle Guzmán el Bueno nº 2,",07,071,1529,123,27,2024-03-15 08:58:01,-3.7133412,40.4306458,"(-3.7133412, 40.4306458)"
118,"Calle Fernández de la Hoz nº 29,",07,074,1531,125,27,2024-03-15 08:58:01,-3.6948,40.4353,"(-3.6948, 40.4353)"
119,"Calle del General Álvarez de Castro, 6 ,",07,073,1532,126,27,2024-03-15 08:58:01,-3.7018044,40.4345976,"(-3.7018044, 40.4345976)"
120,"Calle Fernando el Católico nº 19,",07,072,1533,127,27,2024-03-15 08:58:01,-3.708439,40.4338516,"(-3.708439, 40.4338516)"
121,"Calle Cea Bermúdez nº 59,",07,076,1534,128,27,2024-03-15 08:58:01,-3.7154,40.4392,"(-3.7154, 40.4392)"
122,"Calle de José Abascal, 33-35 ,",07,075,1535,129,27,2024-03-15 08:58:01,-3.6982353,40.4383865,"(-3.6982353, 40.4383865)"
123,"Calle de Santa Engracia, 129 ,",07,075,1536,130,23,2024-03-15 08:58:01,-3.70164,40.44156,"(-3.70164, 40.44156)"
124,"Calle Bravo Murillo nº 44,",07,075,1537,131,23,2024-03-15 08:58:01,-3.70403123,40.4417884,"(-3.70403123, 40.4417884)"
125,"Calle Santa Engracia, 164 ,",07,075,1538,132,27,2024-03-15 08:58:01,-3.703605250412747,40.446377501314885,"(-3.703605250412747, 40.446377501314885)"
126,"Calle Dulcinea, 3 ,",06,062,1539,133,24,2024-03-15 08:58:01,-3.7001669,40.447125,"(-3.7001669, 40.447125)"
127,"Calle María de Guzmán nº 58,",07,075,1540,134,23,2024-03-15 08:58:01,-3.6955687,40.4441818,"(-3.6955687, 40.4441818)"
128,"Plaza de San Juan de la Cruz, 10 ,",07,075,1541,135,23,2024-03-15 08:58:01,-3.692734,40.441481,"(-3.692734, 40.441481)"
129,"Paseo de la Castellana nº 106,",05,051,1542,136,23,2024-03-15 08:58:01,-3.690769,40.4451244,"(-3.690769, 40.4451244)"
130,"Plaza de la republica argentina, 7 ,",05,051,1543,137,24,2024-03-15 08:58:01,-3.6853377,40.4454477,"(-3.6853377, 40.4454477)"
131,"Paseo de la Castellana, 63 ,",07,075,1544,138,23,2024-03-15 08:58:01,-3.6914063,40.4457414,"(-3.6914063, 40.4457414)"
132,"Calle Pedro de Valdivia, 2 ,",05,051,1545,139,24,2024-03-15 08:58:01,-3.690419307270818,40.43939562033124,"(-3.690419307270818, 40.43939562033124)"
133,"Calle Velázquez, 134 ,",05,051,1546,140,27,2024-03-15 08:58:01,-3.6830583,40.4387566,"(-3.6830583, 40.4387566)"
134,"Paseo de la Castellana nº 43,",07,074,1547,141,12,2024-03-15 08:58:01,-3.6893917,40.4354047,"(-3.6893917, 40.4354047)"
135,"Calle General Pardiñas, 58 ,",04,045,1549,186,23,2024-03-15 08:58:01,-3.6783016,40.4289804,"(-3.6783016, 40.4289804)"
136,"Calle de Juan Bravo, 51 ,",04,045,1550,144,27,2024-03-15 08:58:01,-3.675556,40.4324081,"(-3.675556, 40.4324081)"
137,"Calle Ortega y Gasset nº 87,",04,045,1551,145,23,2024-03-15 08:58:01,-3.6712823,40.429887,"(-3.6712823, 40.429887)"
138,"Calle de María Francisca, 3,",05,051,1552,146,19,2024-03-15 08:58:01,-3.6788499,40.4442541,"(-3.6788499, 40.4442541)"
139,"Avenida del Doctor Arce nº 45,",05,051,1553,147,23,2024-03-15 08:58:01,-3.6794,40.4484,"(-3.6794, 40.4484)"
140,"Calle Serrano nº 210,",05,051,1554,148,23,2024-03-15 08:58:01,-3.6813971,40.451117,"(-3.6813971, 40.451117)"
141,"Paseo de la Habana nº 42,",05,051,1555,149,23,2024-03-15 08:58:01,-3.6879303,40.4498515,"(-3.6879303, 40.4498515)"
142,"Calle Orense nº 12,",06,062,1557,151,27,2024-03-15 08:58:01,-3.6953592650123657,40.44881224951987,"(-3.6953592650123657, 40.44881224951987)"
143,"Avenida del General Perón, 4 ,",06,062,1558,152,23,2024-03-15 08:58:01,-3.6989,40.4525,"(-3.6989, 40.4525)"
144,"Avenida del General Perón, 36 ,",06,062,1559,153,23,2024-03-15 08:58:01,-3.6936,40.4523,"(-3.6936, 40.4523)"
145,"Calle Orense nº 36,",06,062,1560,154,24,2024-03-15 08:58:01,-3.6946218,40.4548456,"(-3.6946218, 40.4548456)"
146,"Calle San Germán nº 57,",06,062,1561,155,23,2024-03-15 08:58:01,-3.700930190178302,40.4573342300643,"(-3.700930190178302, 40.4573342300643)"
147,"Calle Sor Ángela de la Cruz nº 2,",06,063,1562,156,24,2024-03-15 08:58:01,-3.691533,40.4592351,"(-3.691533, 40.4592351)"
148,"Avenida de Alberto Alcocer nº 22,",05,054,1564,158,23,2024-03-15 08:58:01,-3.684625,40.45869,"(-3.684625, 40.45869)"
149,"Paseo de la Habana nº 63,",05,054,1565,159,23,2024-03-15 08:58:01,-3.6835926,40.4543852,"(-3.6835926, 40.4543852)"
150,"Calle Colombia, 11 ,",05,054,1566,160,24,2024-03-15 08:58:01,-3.6763439,40.4572466,"(-3.6763439, 40.4572466)"
151,"Calle del Pinzón, 111 ,",11,114,2152,376,24,2024-03-15 08:58:01,-3.7405438,40.39229225,"(-3.7405438, 40.39229225)"
152,"Avenida De Abrantes, 55 ,",11,117,2153,377,18,2024-03-15 08:58:01,-3.72783615,40.38091762,"(-3.72783615, 40.38091762)"
153,"Calle Mota del Cuervo, 72 ,",16,163,2154,539,24,2024-03-15 08:58:01,-3.63135715,40.4648762,"(-3.63135715, 40.4648762)"
154,"Calle Seseña, 93 ,",10,104,2155,334,24,2024-03-15 08:58:01,-3.76815631,40.39497294,"(-3.76815631, 40.39497294)"
155,"Plaza Patricio, 5 ,",10,105,2156,335,24,2024-03-15 08:58:01,-3.77057541,40.39659757,"(-3.77057541, 40.39659757)"
156,"Calle Troya, 11,",20,207,2157,519,24,2024-03-15 08:58:01,-3.61191521,40.43699597,"(-3.61191521, 40.43699597)"
157,"Calle Eugenia de Montijo, 83,",11,116,2158,378,24,2024-03-15 08:58:01,-3.7509733,40.37562288,"(-3.7509733, 40.37562288)"
158,"Calle Antonia Rodriguez Sacristan, 4,",11,116,2159,379,24,2024-03-15 08:58:01,-3.74765739,40.37313777,"(-3.74765739, 40.37313777)"
159,"Calle Caleruega, 14 ,",15,159,2160,495,24,2024-03-15 08:58:01,-3.670588,40.478746,"(-3.670588, 40.478746)"
160,"Calle Islas Cies, 27,",08,083,2161,593,24,2024-03-15 08:58:01,-3.71869067,40.48027409,"(-3.71869067, 40.48027409)"
161,"Calle Pedro Rico, 49,",08,085,2162,594,24,2024-03-15 08:58:01,-3.703918,40.48194,"(-3.703918, 40.48194)"
162,"Avenida de Betanzos, 68,",08,084,2163,595,24,2024-03-15 08:58:01,-3.7132206,40.48178815,"(-3.7132206, 40.48178815)"
163,"Calle Dulce Chacón, S/N ,",16,166,2165,540,24,2024-03-15 08:58:01,-3.6636484,40.4845596,"(-3.6636484, 40.4845596)"
164,"Calle Oliva de Plasencia, 1,",10,107,2166,336,24,2024-03-15 08:58:01,-3.77915183,40.37850071,"(-3.77915183, 40.37850071)"
165,"Calle Valmojado, 295,",10,104,2167,337,18,2024-03-15 08:58:01,-3.76048923,40.38614104,"(-3.76048923, 40.38614104)"
166,"Calle Guareña, 22 ,",10,107,2168,338,18,2024-03-15 08:58:01,-3.7653391035306005,40.386362337060476,"(-3.7653391035306005, 40.386362337060476)"
167,"Avenida de las Aguilas , 110,",10,107,2169,339,24,2024-03-15 08:58:01,-3.78061952,40.38132642,"(-3.78061952, 40.38132642)"
168,"Calle de la Foresta nº8,",08,086,2170,597,23,2024-03-15 08:58:01,-3.66777681,40.49853277,"(-3.66777681, 40.49853277)"
169,"Calle José Gutiérrez Maroto, 36 ,",18,183,2171,445,27,2024-03-15 08:58:01,-3.60503564,40.36334587,"(-3.60503564, 40.36334587)"
170,"Calle La Cabrera, sn,",08,083,2172,599,27,2024-03-15 08:58:01,-3.71920443,40.47223267,"(-3.71920443, 40.47223267)"
171,"Calle Fuente de Lima, 10,",10,107,2173,343,23,2024-03-15 08:58:01,-3.78339301,40.38358975,"(-3.78339301, 40.38358975)"
172,"Calle Ocaña, 103,",10,104,2174,344,23,2024-03-15 08:58:01,-3.75292035,40.38586273,"(-3.75292035, 40.38586273)"
173,"Paseo de Juan XXIII, 24,",09,093,2175,313,27,2024-03-15 08:58:01,-3.7169359,40.448084,"(-3.7169359, 40.448084)"
174,"Avenida Valladolid, 47D ,",09,091,2176,314,27,2024-03-15 08:58:01,-3.73068,40.42966,"(-3.73068, 40.42966)"
175,"Calle de Caroli, 10,",09,097,2177,315,23,2024-03-15 08:58:01,-3.784627,40.45862,"(-3.784627, 40.45862)"
176,"Calle Antonio Machado, s/n ,",09,094,2178,316,19,2024-03-15 08:58:01,-3.71995383,40.46439687,"(-3.71995383, 40.46439687)"
177,"Calle Antonio Machado, 30,",09,094,2179,317,27,2024-03-15 08:58:01,-3.71921712,40.46826955,"(-3.71921712, 40.46826955)"
178,"Calle Fuente del Tiro, 72 ,",10,107,2180,345,24,2024-03-15 08:58:01,-3.7798001,40.38308791,"(-3.7798001, 40.38308791)"
179,"Calle del Pico Chilegua, 3,",18,181,2182,449,24,2024-03-15 08:58:01,-3.61869106,40.37286701,"(-3.61869106, 40.37286701)"
180,"Calle Camino de las Hormigueras, 161,",18,181,2183,450,24,2024-03-15 08:58:01,-3.6370762,40.3762555,"(-3.6370762, 40.3762555)"
181,"Calle Clara del Rey, 17 ,",05,052,2184,294,24,2024-03-15 08:58:01,-3.672339,40.440944,"(-3.672339, 40.440944)"
182,"Avenida del Camino de Santiago, 4,",08,086,2185,604,23,2024-03-15 08:58:01,-3.66955215,40.50910428,"(-3.66955215, 40.50910428)"
183,"Calle José de cadalso, 62 ,",10,107,2186,348,27,2024-03-15 08:58:01,-3.77024778,40.37959145,"(-3.77024778, 40.37959145)"
184,"Calle Enrique Garcia Alvarez, 5,",18,182,2187,438,27,2024-03-15 08:58:01,-3.6140607,40.3804482,"(-3.6140607, 40.3804482)"
185,"Calle Granja de San Idelfonso, 14 ,",18,183,2188,451,27,2024-03-15 08:58:01,-3.62283116,40.36813427,"(-3.62283116, 40.36813427)"
186,"Avenida de Las Suertes, 15,",18,183,2189,452,23,2024-03-15 08:58:01,-3.6078539,40.3713613,"(-3.6078539, 40.3713613)"
187,"Avenida del Ensanche de Vallecas, 9,",18,183,2190,453,27,2024-03-15 08:58:01,-3.61253028,40.37043968,"(-3.61253028, 40.37043968)"
188,"Calle Gran Via del Sureste, 22,",18,183,2191,454,27,2024-03-15 08:58:01,-3.5897045,40.3631604,"(-3.5897045, 40.3631604)"
189,"Paseo de la Chopera, 31 ,Comunidad de Madrid España",02,023,2205,267,23,2024-03-15 08:58:01,-3.7003996647238746,40.39500000000003,"(-3.7003996647238746, 40.39500000000003)"
190,"Calle Rafaela Ybarra, 22,Comunidad de Madrid España",12,126,2207,391,23,2024-03-15 08:58:01,-3.711296220901499,40.3817026328731,"(-3.711296220901499, 40.3817026328731)"
191,"c/ Ginzo de Limia, 47,",08,084,2214,580,23,2024-03-15 08:58:01,-3.706904,40.48337,"(-3.706904, 40.48337)"
192,"Paseo de la castellana, 124 ,",05,051,2224,150,23,2024-03-15 08:58:01,-3.6908,40.4491,"(-3.6908, 40.4491)"
193,"Paseo de la Castellana, 164 ,Comunidad de Madrid España",05,055,2225,157,23,2024-03-15 08:58:01,-3.6894151,40.4591366,"(-3.6894151, 40.4591366)"
194,"Calle Guetaria, 84B,",12,121,2226,395,24,2024-03-15 08:58:01,-3.71569102,40.36916772,"(-3.71569102, 40.36916772)"
195,"Calle Eduardo Mazón, 1 ,",16,161,2233,548,23,2024-03-15 08:58:01,-3.6154157,40.4521484,"(-3.6154157, 40.4521484)"
196,"Calle Santa Rita, 1 ,",05,052,2234,293,23,2024-03-15 08:58:01,-3.6682882,40.4457928,"(-3.6682882, 40.4457928)"
197,"Av/ de Niza, 67 ,",20,205,2235,520,23,2024-03-15 08:58:01,-3.60811578,40.4342806,"(-3.60811578, 40.4342806)"
198,"Amposta s/n (esquina Arcos de Jalón),",20,204,2236,509,23,2024-03-15 08:58:01,-3.61865045,40.42218951,"(-3.61865045, 40.42218951)"
199,"CalleBahía de Cádiz (cruce con Avenida Logroño) ,",21,215,2237,558,23,2024-03-15 08:58:01,-3.593712,40.461137,"(-3.593712, 40.461137)"
200,"Calle Cristo del Gran Poder (cruce con calle Alas) ,",21,214,2238,561,23,2024-03-15 08:58:01,-3.585751,40.472048,"(-3.585751, 40.472048)"
201,"Calle Tomillar, 18 ,",21,211,2239,562,27,2024-03-15 08:58:01,-3.5844146,40.4630993,"(-3.5844146, 40.4630993)"
202,"Calle playa de Zarauz (esquina con Playa de Caleta) ,",21,214,2240,560,23,2024-03-15 08:58:01,-3.5906847,40.4731404,"(-3.5906847, 40.4731404)"
203,"Avenida del Partenón, 6 ,",21,215,2241,568,27,2024-03-15 08:58:01,-3.6178336,40.4632802,"(-3.6178336, 40.4632802)"
204,"Paseo Alberto Palacios, 42,",17,171,2243,405,23,2024-03-15 08:58:01,-3.7129039644180373,40.3449259916087,"(-3.7129039644180373, 40.3449259916087)"
205,"Calle Eduardo Maristany, 7,",17,173,2244,401,27,2024-03-15 08:58:01,-3.683127,40.353285,"(-3.683127, 40.353285)"
206,"Calle Cifuentes, 5,",17,175,2245,406,23,2024-03-15 08:58:01,-3.6960817,40.3486,"(-3.6960817, 40.3486)"
207,"Calle Auñón, 16,",17,173,2246,403,23,2024-03-15 08:58:01,-3.6775242,40.3504944,"(-3.6775242, 40.3504944)"
208,"Paseo de los Melancólicos, 73 ,",02,021,2247,280,23,2024-03-15 08:58:01,-3.718569,40.401782,"(-3.718569, 40.401782)"
209,"Calle Albox, 35 ,",11,115,2248,367,23,2024-03-15 08:58:01,-3.73984,40.373972,"(-3.73984, 40.373972)"
210,"Paseo de los Jesuitas, 4 ,",10,102,2249,325,23,2024-03-15 08:58:01,-3.7305543,40.4106918,"(-3.7305543, 40.4106918)"
211,"Calle Sierra de Atapuerca, 19,",08,086,2250,578,23,2024-03-15 08:58:01,-3.67042488,40.50292982,"(-3.67042488, 40.50292982)"
212,"Calle Puerto de Porzuna, 34,",18,181,2251,446,23,2024-03-15 08:58:01,-3.6236297,40.373826,"(-3.6236297, 40.373826)"
213,"Parque Eugenia de Montijo, 2,",11,114,2252,382,24,2024-03-15 08:58:01,-3.7545822,40.3783501,"(-3.7545822, 40.3783501)"
214,"Calle transversal sexta (enfrente del colegio Villamadrid),",17,171,2254,410,24,2024-03-15 08:58:01,-3.6992665,40.3325463,"(-3.6992665, 40.3325463)"
215,"Calle Valdesangil, 34 ,",09,094,2255,319,24,2024-03-15 08:58:01,-3.7166729,40.4684218,"(-3.7166729, 40.4684218)"
216,"Calle María Tubau, 3 ,",08,086,2256,579,24,2024-03-15 08:58:01,-3.6717035870335635,40.51399230680476,"(-3.6717035870335635, 40.51399230680476)"
217,"Calle del Monasterio de Sobrado, nº6,",08,088,2257,602,24,2024-03-15 08:58:01,-3.692837,40.5093225,"(-3.692837, 40.5093225)"
218,"Calle Ubeda esquina Plaza Virgen de la capilla ,",08,083,2258,600,24,2024-03-15 08:58:01,-3.7149566,40.4825507,"(-3.7149566, 40.4825507)"
219,"Avenida de Logroño, 112 ,",21,214,2259,566,24,2024-03-15 08:58:01,-3.5815033,40.4703472,"(-3.5815033, 40.4703472)"
220,"Calle Playa de Riazor, 65 ,",21,214,2260,565,24,2024-03-15 08:58:01,-3.5838869,40.47563573,"(-3.5838869, 40.47563573)"
221,"467 -  Calle Villardondiego  nº32,",19,191,2261,467,24,2024-03-15 08:58:01,-3.6084888,40.4062361,"(-3.6084888, 40.4062361)"
222,"469 - Ladera de los Almendros, 6,",19,192,2262,469,24,2024-03-15 08:58:01,-3.62299,40.40343,"(-3.62299, 40.40343)"
223,"Avenida Real, 3,",19,191,2263,470,18,2024-03-15 08:58:01,-3.6063672,40.4021519,"(-3.6063672, 40.4021519)"
224,"Calle Molino Viejo frente , 14,",19,193,2264,471,18,2024-03-15 08:58:01,-3.60666,40.396301,"(-3.60666, 40.396301)"
225,"Calle Amaltea, 1 ,",02,025,2265,271,24,2024-03-15 08:58:01,-3.68317,40.394706,"(-3.68317, 40.394706)"
226,"Calle Villablanca 7,",19,191,2266,466,23,2024-03-15 08:58:01,-3.60783265,40.40894698,"(-3.60783265, 40.40894698)"
227,"Paseo Juan Antonio Vallejo-Nájera Botas, 25 ,",02,022,2267,275,23,2024-03-15 08:58:01,-3.7082123,40.4020545,"(-3.7082123, 40.4020545)"
228," Avenida de la Aurora Boreal, 19,",19,193,2268,475,23,2024-03-15 08:58:01,-3.603668,40.399236,"(-3.603668, 40.399236)"
229,"Calle Méndez Álvaro, 73 ,",02,027,2269,274,23,2024-03-15 08:58:01,-3.68134346,40.39675755,"(-3.68134346, 40.39675755)"
230,"Calle Nuria nº24,",08,087,2270,605,24,2024-03-15 08:58:01,-3.704883,40.491644,"(-3.704883, 40.491644)"
231,"Avenida Arcentales (frente Estadio Metropolitano),",20,205,2271,522,24,2024-03-15 08:58:01,-3.60097542,40.43333298,"(-3.60097542, 40.43333298)"
232,"Calle Ginebra (esquina con Suecia),",20,205,2272,521,24,2024-03-15 08:58:01,-3.6048181,40.423893,"(-3.6048181, 40.423893)"
233,"Intercambiador de Canillejas,",20,207,2273,508,24,2024-03-15 08:58:01,-3.609553,40.449095,"(-3.609553, 40.449095)"
234,"Avenida Ciudad de Barcelona (esquina con Plaza de Carlos V),",03,035,2274,80A,23,2024-03-15 08:58:01,-3.690538,40.407573,"(-3.690538, 40.407573)"
235,"Avenida Ciudad de Barcelona (esquina con Plaza de Carlos V),",03,035,2275,80B,27,2024-03-15 08:58:01,-3.6904748,40.4075211,"(-3.6904748, 40.4075211)"
236,"Calle Adolfo Bioy Casares, 3 ,",18,183,2276,447,27,2024-03-15 08:58:01,-3.5981935,40.3668504,"(-3.5981935, 40.3668504)"
237,"Calle San Jenaro, 1,",17,171,2278,412,24,2024-03-15 08:58:01,-3.7043083,40.3500291,"(-3.7043083, 40.3500291)"
238,"Calle Diamante, 10 ,",17,174,2279,415,24,2024-03-15 08:58:01,-3.6877534,40.3532609,"(-3.6877534, 40.3532609)"
239,"Calle Doctor Martín Arévalo enfrente del N°16 ,",17,171,2280,413,24,2024-03-15 08:58:01,-3.707413,40.345928,"(-3.707413, 40.345928)"
240,"Calle Zapatoca, 8,",16,164,2281,545,23,2024-03-15 08:58:01,-3.63335803,40.47285235,"(-3.63335803, 40.47285235)"
241,"Plaza Mayor de Barajas, 24,",21,213,2282,567,24,2024-03-15 08:58:01,-3.5776537,40.4733252,"(-3.5776537, 40.4733252)"
242,"Calle soto Hidalgo, 3 ,",21,211,2283,563,27,2024-03-15 08:58:01,-3.5820745,40.4606465,"(-3.5820745, 40.4606465)"
243,"Paseo de Reina Cristina, 6 ,",03,031,2285,281,23,2024-03-15 08:58:01,-3.6831862,40.4067247,"(-3.6831862, 40.4067247)"
244,"Ronda de la Comunicación, s/n,",08,086,2286,609,23,2024-03-15 08:58:01,-3.6626887,40.5157202,"(-3.6626887, 40.5157202)"
245,"Calle de Moncada, 102 ,",17,172,2287,408,23,2024-03-15 08:58:01,-3.692444,40.341725,"(-3.692444, 40.341725)"
246,"Calle Eduardo Barreiros, 114,",17,175,2288,409,23,2024-03-15 08:58:01,-3.7046436,40.3553495,"(-3.7046436, 40.3553495)"
247,"Calle Fermín Caballero 2,",08,085,2289,606,23,2024-03-15 08:58:01,-3.698485,40.487363,"(-3.698485, 40.487363)"
248,"Calle Huerta de Catañeda, 26 ,",10,103,2290,349,24,2024-03-15 08:58:01,-3.74201882097404,40.40622095698234,"(-3.74201882097404, 40.40622095698234)"
249,"calle Gregorio Sánchez Herráez 14,",16,166,2291,544,23,2024-03-15 08:58:01,-3.63657,40.477248,"(-3.63657, 40.477248)"
250,"Calle Oña s/n,",16,166,2292,551,23,2024-03-15 08:58:01,-3.6658565,40.4891872,"(-3.6658565, 40.4891872)"
251,"Calle Ana de Austria, 52 ,",16,166,2293,552,27,2024-03-15 08:58:01,-3.6531502,40.4994394,"(-3.6531502, 40.4994394)"
252,"Avenida Fuerzas Armadas (Renfe Valdebebas) ,",21,214,2294,542,24,2024-03-15 08:58:01,-3.6157178,40.4819961,"(-3.6157178, 40.4819961)"
253,"Paseo de la Puerta del Ángel, 10 ,",09,091,2297,320,19,2024-03-15 08:58:01,-3.7345247,40.4167792,"(-3.7345247, 40.4167792)"
254,"Calle Estella, 21,",08,086,2298,608,23,2024-03-15 08:58:01,-3.6743568,40.4968198,"(-3.6743568, 40.4968198)"
255,"Paseo de los Pontones, 26 ,",02,021,2299,278,23,2024-03-15 08:58:01,-3.7196,40.4040433,"(-3.7196, 40.4040433)"
256,"Calle luis de Salazar, 16 ,",05,052,2300,289,23,2024-03-15 08:58:01,-3.6649258,40.4474166,"(-3.6649258, 40.4474166)"
257,"Calle Rafaela Aparicio, 1 ,",16,166,2301,547,27,2024-03-15 08:58:01,-3.6312179,40.4792396,"(-3.6312179, 40.4792396)"
258,"Calle de Berrocal, 9 ,",17,173,2302,402,27,2024-03-15 08:58:01,-3.67615,40.344115,"(-3.67615, 40.344115)"
259,"Calle Tomás Redondo, 9 ,",16,166,2303,543,23,2024-03-15 08:58:01,-3.62913802,40.47178414,"(-3.62913802, 40.47178414)"
260,"Paseo Virgen del Puerto, 27 ,",02,021,2304,277,15,2024-03-15 08:58:01,-3.721178,40.411622,"(-3.721178, 40.411622)"
261,"Avenida Menéndez Pelayo enfrente del nº33 ,",03,035,2306,282,23,2024-03-15 08:58:01,-3.6787796,40.4181327,"(-3.6787796, 40.4181327)"
262,"Calle Mayor , 6,",01,016,2307,1,23,2024-03-15 08:58:01,-3.7054098,40.416465,"(-3.7054098, 40.416465)"
263,"Avenida Gran Vía de San Francisco, 6,",01,011,2308,263,23,2024-03-15 08:58:01,-3.712793282384579,40.40833880815136,"(-3.712793282384579, 40.40833880815136)"
264," Calle Babilonia, 19,",21,215,2309,559,23,2024-03-15 08:58:01,-3.5882347,40.4675299,"(-3.5882347, 40.4675299)"
265,"Camino de Ganapanes, 32-40 ,",08,083,2311,581,24,2024-03-15 08:58:01,-3.7163093,40.4764797,"(-3.7163093, 40.4764797)"
266,"Calle San Modesto, 44,",08,086,2312,598,24,2024-03-15 08:58:01,-3.6923396,40.4858012,"(-3.6923396, 40.4858012)"
267,"Calle Escalona, 2,",10,104,2313,341,27,2024-03-15 08:58:01,-3.76182259,40.39834576,"(-3.76182259, 40.39834576)"
268,"Calle de Tembleque, 31 ,",10,104,2314,346,24,2024-03-15 08:58:01,-3.7664844,40.3907438,"(-3.7664844, 40.3907438)"
269,"Avenida de las Aguilas, 27 ,",10,107,2315,347,24,2024-03-15 08:58:01,-3.768603,40.383554,"(-3.768603, 40.383554)"
270,"Calle Albelda, 6,",15,156,2316,528,24,2024-03-15 08:58:01,-3.6573666,40.4494225,"(-3.6573666, 40.4494225)"
271,"Paseo de la Venta, 1,",09,091,2317,312,27,2024-03-15 08:58:01,-3.7528559,40.4077495,"(-3.7528559, 40.4077495)"
272,"Carretera del zoo s/n (metro Casa de Campo) ,",09,091,2318,321,27,2024-03-15 08:58:01,-3.761051,40.40316,"(-3.761051, 40.40316)"
273,"Calle Rosas de Aravaca, s/n ,",09,097,2319,310,23,2024-03-15 08:58:01,-3.7845536,40.4490509,"(-3.7845536, 40.4490509)"
274,"Calle Profesor Aranguren, 1 ,",09,093,2320,311,27,2024-03-15 08:58:01,-3.733574,40.448553,"(-3.733574, 40.448553)"
275,"Calle Felipe IV, 5 ,",03,035,2321,283,23,2024-03-15 08:58:01,-3.6919057,40.4152082,"(-3.6919057, 40.4152082)"
276,"Avenida Del Partenón, 18 ,",21,215,2322,564,23,2024-03-15 08:58:01,-3.613867,40.463861,"(-3.613867, 40.463861)"
277,"Calle Caños de San Pedro, 12,",19,191,2323,468,23,2024-03-15 08:58:01,-3.601920499999999,40.4029976,"(-3.601920499999999, 40.4029976)"
278,"465 - Cordel de Pavones, 48,",19,192,2324,465,24,2024-03-15 08:58:01,-3.619645,40.397375,"(-3.619645, 40.397375)"
279,"Calle Santa Petronila, 7 ,",17,174,2325,414,24,2024-03-15 08:58:01,-3.692163,40.350985,"(-3.692163, 40.350985)"
280,"Calle de la Oca, 22 ,",11,113,2326,380,24,2024-03-15 08:58:01,-3.7335492,40.3894333,"(-3.7335492, 40.3894333)"
281,"Calle Domingo Párraga, 38 ,",17,171,2327,411,23,2024-03-15 08:58:01,-3.7118183,40.3417533,"(-3.7118183, 40.3417533)"
282,"Calle Jacinto Verdaguer, 12 ,",11,112,2328,354,24,2024-03-15 08:58:01,-3.7160526116262793,40.39593854704345,"(-3.7160526116262793, 40.39593854704345)"
283,"Calle Santa Pola, 22 ,",09,091,2329,318,23,2024-03-15 08:58:01,-3.7370276473602226,40.43205131007265,"(-3.7370276473602226, 40.43205131007265)"
284,"Avenida Francisco Pi y Margall, 29 ,",16,166,2330,549,19,2024-03-15 08:58:01,-3.6503544,40.4866354,"(-3.6503544, 40.4866354)"
285,"Paseo de los Melancólicos, 1 ,",02,021,2331,279,23,2024-03-15 08:58:01,-3.7184816,40.4104448,"(-3.7184816, 40.4104448)"
286,"Calle Carmen de Burgos, 4,",17,174,2332,407,23,2024-03-15 08:58:01,-3.6847883,40.3575459,"(-3.6847883, 40.3575459)"
287,"Paseo de las Yeserías, 15,",02,022,2333,276,23,2024-03-15 08:58:01,-3.7099166,40.39900539,"(-3.7099166, 40.39900539)"
288,"Calle Illescas, 1 ,",10,104,2334,340,27,2024-03-15 08:58:01,-3.7656976,40.3970983,"(-3.7656976, 40.3970983)"
289,"Calle Osa de la Vega, 1 ,",10,107,2335,342,23,2024-03-15 08:58:01,-3.773381,40.374979,"(-3.773381, 40.374979)"
290,"Calle Alfredo Aleix, 9 ,",11,116,2337,381,24,2024-03-15 08:58:01,-3.7553916,40.3684767,"(-3.7553916, 40.3684767)"
291,"Calle Valderrebollo, 18 ,",18,183,2339,444,23,2024-03-15 08:58:01,-3.6276352,40.3743481,"(-3.6276352, 40.3743481)"
292,"Avenida Del Ensanche de Vallecas, 80 ,",18,183,2340,448,27,2024-03-15 08:58:01,-3.599352,40.363376,"(-3.599352, 40.363376)"
293,"Calle de los Pinillas, 19,",19,192,2341,472,27,2024-03-15 08:58:01,-3.6211485,40.3987974,"(-3.6211485, 40.3987974)"
294,"Calle Villa Blanca, 85 ,",19,191,2342,473,27,2024-03-15 08:58:01,-3.59888007,40.40500033,"(-3.59888007, 40.40500033)"
295,"Calle San Cipriano, 71 ,",19,193,2343,474,27,2024-03-15 08:58:01,-3.596875,40.402255,"(-3.596875, 40.402255)"
296,"Avenida Gran Vía de Hortaleza, 68 ,",16,163,2347,541,23,2024-03-15 08:58:01,-3.6468591,40.4682706,"(-3.6468591, 40.4682706)"
297,"Calle Andorra, 2 ,",16,163,2348,546,23,2024-03-15 08:58:01,-3.6467519,40.4628976,"(-3.6467519, 40.4628976)"
298,"Calle del Príncipe Carlos, 54 ,",16,166,2349,550,23,2024-03-15 08:58:01,-3.656674,40.4941108,"(-3.656674, 40.4941108)"
299,"Calle María de Portugal, 44 ,",16,166,2350,553,23,2024-03-15 08:58:01,-3.658921,40.499909,"(-3.658921, 40.499909)"
300,"Calle Antonio de Cabezón, s/n (Estacion Cercanías Fuencarral),",08,086,2351,601,23,2024-03-15 08:58:01,-3.6824687,40.5015588,"(-3.6824687, 40.5015588)"
301,"Calle Castiello de Jaca, nº14 ,",08,086,2352,603,23,2024-03-15 08:58:01,-3.6782027,40.5091982,"(-3.6782027, 40.5091982)"
302,"Calle Valcarlos, nº20 ,Comunidad de Madrid España",08,086,2359,607,27,2024-03-15 08:58:01,-3.6641571,40.5051915,"(-3.6641571, 40.5051915)"
303,"Bardegueral nº16,Comunidad de Madrid España",09,097,2360,610,23,2024-03-15 08:58:01,-3.7719097,40.4501721,"(-3.7719097, 40.4501721)"
304,"Calle Francisco Balseiro, 2 ,Comunidad de Madrid España",06,061,2362,237,24,2024-03-15 08:58:01,-3.7102736,40.4516819,"(-3.7102736, 40.4516819)"
305,"Calle María de las Mercedes de Borbón, 214,",16,166,2365,262,23,2024-03-15 08:58:01,-3.620114,40.4928683,"(-3.620114, 40.4928683)"
306,"Calle María de las Mercedes de Borbón, 98,",16,166,2366,611,23,2024-03-15 08:58:01,-3.6121068531215528,40.490908297996654,"(-3.6121068531215528, 40.490908297996654)"
307,"Paseo de la Florida nº 8,",09,091,1567,161,27,2024-03-15 08:58:01,-3.7220993214090403,40.422192474165534,"(-3.7220993214090403, 40.422192474165534)"
308,"Paseo de los Olmos, 26 ,",02,022,1568,162,23,2024-03-15 08:58:01,-3.7105765,40.4034968,"(-3.7105765, 40.4034968)"
309,"Paseo de la Esperanza, 2A ,",02,022,1569,163,18,2024-03-15 08:58:01,-3.706445,40.4037586,"(-3.706445, 40.4037586)"
310,"Paseo de las Delicias nº 94,",02,025,1570,164,27,2024-03-15 08:58:01,-3.69461,40.39723,"(-3.69461, 40.39723)"
311,"Paseo de la Chopera frente 51 ,",02,023,1571,165,43,2024-03-15 08:58:01,-3.697596,40.392888,"(-3.697596, 40.392888)"
312,"Calle Segovia nº 26,",01,011,1572,166,27,2024-03-15 08:58:01,-3.7133770233135133,40.41390473235381,"(-3.7133770233135133, 40.41390473235381)"
313,"Calle Segovia nº 45,",02,021,1573,167,27,2024-03-15 08:58:01,-3.71748917032373,40.41374770742206,"(-3.71748917032373, 40.41374770742206)"
314,"Paseo Santa María de la Cabeza frente al 30 ,",02,026,1574,168,23,2024-03-15 08:58:01,-3.6959,40.4046,"(-3.6959, 40.4046)"
315,"Calle Toledo nº 181,",02,022,1575,169,24,2024-03-15 08:58:01,-3.713823,40.401589,"(-3.713823, 40.401589)"
316,"Paseo de la Esperanza nº 21,",02,022,1576,170,24,2024-03-15 08:58:01,-3.7043956,40.4010554,"(-3.7043956, 40.4010554)"
317,"Calle Embajadores nº 97,",02,025,1577,171,27,2024-03-15 08:58:01,-3.6984023,40.3997013,"(-3.6984023, 40.3997013)"
318,"Calle Bustamante nº 3,",02,025,1578,172,23,2024-03-15 08:58:01,-3.6934926,40.4008279,"(-3.6934926, 40.4008279)"
319,"Paseo de la Esperanza nº 59,",02,022,1579,173,24,2024-03-15 08:58:01,-3.7024839,40.3983467,"(-3.7024839, 40.3983467)"
320,"Paseo de Yeserías nº 45,",02,022,1580,174,27,2024-03-15 08:58:01,-3.7065258846557603,40.39742958306358,"(-3.7065258846557603, 40.39742958306358)"
321,"Calle Jaime el Conquistador nº 30,",02,023,1581,175,19,2024-03-15 08:58:01,-3.69834452,40.3962264,"(-3.69834452, 40.3962264)"
322,"Calle Bolívar nº 3,",02,025,1583,177,23,2024-03-15 08:58:01,-3.6941876374343896,40.391447085678806,"(-3.6941876374343896, 40.391447085678806)"
323,"Calle León Gil de Palacio nº 1,",03,031,1584,178,24,2024-03-15 08:58:01,-3.6788343,40.4029202,"(-3.6788343, 40.4029202)"
324,"Avenida de la Albufera nº 6,",13,132,1585,179,24,2024-03-15 08:58:01,-3.6692724,40.3979273,"(-3.6692724, 40.3979273)"
325,"Calle Retama (esquina con calle Acanto),",02,027,1586,180,23,2024-03-15 08:58:01,-3.67589,40.3940423,"(-3.67589, 40.3940423)"
326,"Calle Ibiza nº 16,",03,034,1587,181,27,2024-03-15 08:58:01,-3.676443540475469,40.41816932665331,"(-3.676443540475469, 40.41816932665331)"
327,"Alcalde Sainz de Baranda (esquina con calle de Juan Espladiu),",03,033,1588,182,23,2024-03-15 08:58:01,-3.6657777,40.4186666,"(-3.6657777, 40.4186666)"
328,"Calle Hermosilla, 135,",04,042,1589,183,23,2024-03-15 08:58:01,-3.669339,40.425635,"(-3.669339, 40.425635)"
329,"Paseo del Marqués Zafra, 24 ,",04,043,1590,184,24,2024-03-15 08:58:01,-3.6653055,40.426,"(-3.6653055, 40.426)"
330,"Calle Sancho Dávila, 35 ,",04,043,1591,185,24,2024-03-15 08:58:01,-3.6615277,40.4250833,"(-3.6615277, 40.4250833)"
331,"Calle de Diego de León, 54 ,",04,045,1592,143,23,2024-03-15 08:58:01,-3.6780802,40.434676,"(-3.6780802, 40.434676)"
332,"Avenida de Daroca, 2 ,",15,151,1594,188,27,2024-03-15 08:58:01,-3.6590286,40.4312562,"(-3.6590286, 40.4312562)"
333,"Avenida donostiarra,",15,154,1595,189,23,2024-03-15 08:58:01,-3.6554918,40.4351256,"(-3.6554918, 40.4351256)"
334,"Calle Velázquez, 91 ,",04,046,1596,190,23,2024-03-15 08:58:01,-3.6833753,40.4343053,"(-3.6833753, 40.4343053)"
335,"Calle de Alfonso Heredia, 2 ,",04,044,1597,191,19,2024-03-15 08:58:01,-3.6740777840614403,40.434569387142616,"(-3.6740777840614403, 40.434569387142616)"
336,"Avenida de los Toreros, 3 ,",04,044,1598,192,27,2024-03-15 08:58:01,-3.6714677183853106,40.431826464468664,"(-3.6714677183853106, 40.431826464468664)"
337,"Avenida De los Toreros, 49 ,",04,044,1599,193,27,2024-03-15 08:58:01,-3.6655555,40.4324722,"(-3.6655555, 40.4324722)"
338,"Calle Francisco Silvela, 87 ,",04,044,1600,194,24,2024-03-15 08:58:01,-3.6771535,40.4372638,"(-3.6771535, 40.4372638)"
339,"Calle Mataelpino, 1 ,",05,052,1601,195,24,2024-03-15 08:58:01,-3.6754444,40.4392222,"(-3.6754444, 40.4392222)"
340,"Calle Suero de Quiñones, 4 ,",05,053,1602,196,27,2024-03-15 08:58:01,-3.6752218,40.4442237,"(-3.6752218, 40.4442237)"
341,"Avenida de Concha Espina, 36 ,",05,051,1603,197,23,2024-03-15 08:58:01,-3.677916,40.4516059,"(-3.677916, 40.4516059)"
342,"Paseo de las Castellana, 33 ,",07,074,1604,198,23,2024-03-15 08:58:01,-3.6891,40.432,"(-3.6891, 40.432)"
343,"Calle Fernando el Católico, 61 ,",07,071,1605,199,27,2024-03-15 08:58:01,-3.7149166,40.4343611,"(-3.7149166, 40.4343611)"
344,"Glorieta de Quevedo, 4 ,",07,072,1606,200,24,2024-03-15 08:58:01,-3.7045789811585417,40.43375360585919,"(-3.7045789811585417, 40.43375360585919)"
345,"Calle José Abascal, 2 ,",07,075,1607,201,23,2024-03-15 08:58:01,-3.7038333,40.4386944,"(-3.7038333, 40.4386944)"
346,"Calle de Santander, 1 ,",07,076,1608,202,27,2024-03-15 08:58:01,-3.7083,40.4413,"(-3.7083, 40.4413)"
347,"Calle General de Ampudia 2,",07,076,1609,203,24,2024-03-15 08:58:01,-3.7144722,40.44175,"(-3.7144722, 40.44175)"
348,"Calle Doctor Santero, 1 ,",06,061,1610,204,23,2024-03-15 08:58:01,-3.7040397,40.4476488,"(-3.7040397, 40.4476488)"
349,"Calle Navarra, 1 ,",06,061,1611,205,23,2024-03-15 08:58:01,-3.7032777,40.4535,"(-3.7032777, 40.4535)"
350,"Calle Marqués de Viana, 3 ,",06,066,1612,206,23,2024-03-15 08:58:01,-3.698915521426396,40.4607466894426,"(-3.698915521426396, 40.4607466894426)"
351,"Calle Azucenas, 2 ,",06,065,1613,207,19,2024-03-15 08:58:01,-3.6973352,40.4630443,"(-3.6973352, 40.4630443)"
352,"Paseo de la Castellana, 216 ,",05,056,1614,208,18,2024-03-15 08:58:01,-3.6890611,40.4662811,"(-3.6890611, 40.4662811)"
353,"Plaza de Castilla, 9 ,",05,055,1615,209,23,2024-03-15 08:58:01,-3.6887,40.4657,"(-3.6887, 40.4657)"
354,"Calle de las Tres Cruces,",01,016,1616,210,27,2024-03-15 08:58:01,-3.7027164,40.4196518,"(-3.7027164, 40.4196518)"
355,"Calle de el Desengaño, 4 ,",01,015,1617,211,23,2024-03-15 08:58:01,-3.70239,40.42059,"(-3.70239, 40.42059)"
356,"Glorieta Marqués de Vadillo, 9,",11,113,1618,212,27,2024-03-15 08:58:01,-3.716591,40.398247,"(-3.716591, 40.398247)"
357,"Calle de Antonio López, 129 ,",12,125,1619,213,23,2024-03-15 08:58:01,-3.7002247,40.3889918,"(-3.7002247, 40.3889918)"
358,"Calle Condesa de Venadito, 2 ,",15,155,1620,214,24,2024-03-15 08:58:01,-3.6569031,40.4434316,"(-3.6569031, 40.4434316)"
359,"Calle Gutierre de Cetina, 77 ,",15,152,1621,215,23,2024-03-15 08:58:01,-3.6408093,40.429588,"(-3.6408093, 40.429588)"
360,"Plaza Puerta del Ángel, 3 ,",10,102,1622,216,27,2024-03-15 08:58:01,-3.72897,40.4141,"(-3.72897, 40.4141)"
361,"Calle Pedro Rico, 4 ,",08,085,1623,217,23,2024-03-15 08:58:01,-3.6890758,40.480884,"(-3.6890758, 40.480884)"
362,"Camino de Vinateros, 28 ,",14,144,1624,218,23,2024-03-15 08:58:01,-3.6572967,40.4105478,"(-3.6572967, 40.4105478)"
363,"Camino de los Vinateros, 108 ,",14,143,1625,219,18,2024-03-15 08:58:01,-3.6467338,40.4083593,"(-3.6467338, 40.4083593)"
364,"Calle Arrollo de las Pilillas, 2 ,",14,144,1626,220,24,2024-03-15 08:58:01,-3.651384,40.406156,"(-3.651384, 40.406156)"
365,"Calle Hacienda de Pavones, 148 ,",14,141,1627,221,23,2024-03-15 08:58:01,-3.634744478732248,40.400492026660594,"(-3.634744478732248, 40.400492026660594)"
366,"Calle Eugenio Caxes, 14 ,",12,125,1628,222,23,2024-03-15 08:58:01,-3.7026789,40.3917871,"(-3.7026789, 40.3917871)"
367,"Paseo de la Ermita del Santo, 48 ,",10,101,1629,223,27,2024-03-15 08:58:01,-3.724576,40.406448,"(-3.724576, 40.406448)"
368,"Calle Caramuel, 51 ,",10,102,1630,224,27,2024-03-15 08:58:01,-3.7287,40.409,"(-3.7287, 40.409)"
369,"Calle Sierra Toledana, 33 ,",13,136,1631,225,24,2024-03-15 08:58:01,-3.660345,40.402506,"(-3.660345, 40.402506)"
370,"Camino Valderribas, 94 ,",13,136,1632,226,23,2024-03-15 08:58:01,-3.6607768678037744,40.39901531507069,"(-3.6607768678037744, 40.39901531507069)"
371,"Calle Arrollo del Olivar, 3 ,",13,132,1633,227,24,2024-03-15 08:58:01,-3.6659362429356372,40.39382977920336,"(-3.6659362429356372, 40.39382977920336)"
372,"Calle San Delfín, 10 ,",11,111,1634,228,18,2024-03-15 08:58:01,-3.7080429728445563,40.39440607959559,"(-3.7080429728445563, 40.39440607959559)"
373,"Calle José del Hierro, 6 ,",15,153,1635,229,23,2024-03-15 08:58:01,-3.6486508,40.4369378,"(-3.6486508, 40.4369378)"
374,"Calle Carlota O'Neill, 30-32 ,",15,155,1636,230,24,2024-03-15 08:58:01,-3.6488254,40.4436792,"(-3.6488254, 40.4436792)"
375,"Calle Derechos Humanos, 14 ,",15,155,1637,231,24,2024-03-15 08:58:01,-3.6557193,40.4398283,"(-3.6557193, 40.4398283)"
376,"Calle De José Maria Pereda, 1 ,",15,151,1638,232,26,2024-03-15 08:58:01,-3.6486169,40.4327663,"(-3.6486169, 40.4327663)"
377,"Calle Marqués de Corbera, 12 ,",15,151,1639,233,24,2024-03-15 08:58:01,-3.6555789,40.4229522,"(-3.6555789, 40.4229522)"
378,"Avenida Marques de Corbera, 52 ,",15,151,1640,234,24,2024-03-15 08:58:01,-3.6510917,40.4261278,"(-3.6510917, 40.4261278)"
379,"Calle del Sodio, 1B ,",02,024,1641,235,23,2024-03-15 08:58:01,-3.691076,40.389041,"(-3.691076, 40.389041)"
380,"Paseo Imperial, 31 ,",02,021,1642,236,27,2024-03-15 08:58:01,-3.7170785,40.4075794,"(-3.7170785, 40.4075794)"
381,"CalleSan Germán, 5 ,",06,062,1644,238,24,2024-03-15 08:58:01,-3.6932611,40.4561825,"(-3.6932611, 40.4561825)"
382,"Calle de Francos Rodríguez, 62 ,",06,066,1645,239,23,2024-03-15 08:58:01,-3.7078331,40.4567132,"(-3.7078331, 40.4567132)"
383,"Avenida De Brasilia, 9 ,",04,044,1646,240,23,2024-03-15 08:58:01,-3.66096,40.43666,"(-3.66096, 40.43666)"
384,"Avenida De Bruselas, 56 ,",04,044,1648,242,23,2024-03-15 08:58:01,-3.662928,40.439513,"(-3.662928, 40.439513)"
385,"Calle Cartagena, 37,",04,044,1649,243,23,2024-03-15 08:58:01,-3.67012,40.43503,"(-3.67012, 40.43503)"
386,"Calle Isaac Peral, 42 ,",07,076,1650,244,23,2024-03-15 08:58:01,-3.71757,40.44003,"(-3.71757, 40.44003)"
387,"Calle Galileo, 63 ,",07,072,1651,245,24,2024-03-15 08:58:01,-3.7101381,40.4363637,"(-3.7101381, 40.4363637)"
388,"Calle de Santa Engracia, 85-87 ,",07,073,1652,246,27,2024-03-15 08:58:01,-3.6992484724046637,40.43595788149785,"(-3.6992484724046637, 40.43595788149785)"
389,"Calle de Zurbano, 90 ,",07,075,1653,247,23,2024-03-15 08:58:01,-3.69281,40.43837,"(-3.69281, 40.43837)"
390,"Calle de Sinesio Delgado, 2 ,",08,085,1654,248,27,2024-03-15 08:58:01,-3.6879973,40.4743209,"(-3.6879973, 40.4743209)"
391,"Paseo de la Castellana, 298 ,",05,056,1655,249,24,2024-03-15 08:58:01,-3.6853186,40.4795018,"(-3.6853186, 40.4795018)"
392,"Calle Serrano, 111 ,",05,051,1656,250,27,2024-03-15 08:58:01,-3.6858096,40.4406491,"(-3.6858096, 40.4406491)"
393,"Calle Santa Hortensia, 31 ,",05,052,1657,251,23,2024-03-15 08:58:01,-3.66683,40.44421,"(-3.66683, 40.44421)"
394,"Calle Agustín de Foxá, 40 ,",05,056,1658,252,23,2024-03-15 08:58:01,-3.6839695,40.4717403,"(-3.6839695, 40.4717403)"
395,"Calle del Doctor Fleming, 7 ,",05,054,1659,253,19,2024-03-15 08:58:01,-3.68844,40.45546,"(-3.68844, 40.45546)"
396,"Avenida De Pio XII, 3 ,",05,055,1660,254,23,2024-03-15 08:58:01,-3.67656,40.461,"(-3.67656, 40.461)"
397,"Calle General López pozas, 2 ,",05,055,1661,255,23,2024-03-15 08:58:01,-3.685292,40.46361,"(-3.685292, 40.46361)"
398,"Calle Beatriz de Bobadilla, 4 ,",09,093,1662,256,23,2024-03-15 08:58:01,-3.71383,40.44635,"(-3.71383, 40.44635)"
399,"Avenida Juan Herrera, 1 ,",09,093,1663,257,23,2024-03-15 08:58:01,-3.730527,40.438873,"(-3.730527, 40.438873)"
400,"Ciudad Universitaria, 1 ,",09,093,1664,258,24,2024-03-15 08:58:01,-3.726939,40.444311,"(-3.726939, 40.444311)"
401,"Ciudad Universitaria, 2 ,",09,093,1665,259,19,2024-03-15 08:58:01,-3.726752004160312,40.44270528449462,"(-3.726752004160312, 40.44270528449462)"
402,"Facultad de Biología,",09,093,1666,260,24,2024-03-15 08:58:01,-3.7272945,40.4483322,"(-3.7272945, 40.4483322)"
403,"Avenida Complutense, 21 ,",09,093,1667,261,23,2024-03-15 08:58:01,-3.7296756,40.4505516,"(-3.7296756, 40.4505516)"
404,"Calle Amparo Usera, 46 ,",12,125,1951,384,23,2024-03-15 08:58:01,-3.7061449,40.38707469,"(-3.7061449, 40.38707469)"
405,"Calle Doctor Tolosa Latour, 7 ,",12,127,1952,388,23,2024-03-15 08:58:01,-3.70041478,40.37837955,"(-3.70041478, 40.37837955)"
406,"Calle Campotejar , 25,",12,122,1953,385,23,2024-03-15 08:58:01,-3.70388671,40.36721104,"(-3.70388671, 40.36721104)"
407,"Calle Isabelita Usera, 44 ,",12,127,1954,387,23,2024-03-15 08:58:01,-3.70773972,40.38272256,"(-3.70773972, 40.38272256)"
408,"Avenida de la Perla, 35,",12,123,1955,383,23,2024-03-15 08:58:01,-3.6939702,40.3700017,"(-3.6939702, 40.3700017)"
409,"Avenida de los Poblados, 130,",12,121,1956,386,23,2024-03-15 08:58:01,-3.71331521,40.37347443,"(-3.71331521, 40.37347443)"
410,"Avenida Ramon y Cajal, 101,",15,157,1957,476,23,2024-03-15 08:58:01,-3.662016,40.453493,"(-3.662016, 40.453493)"
411,"Calle de los Misterios, 2 ,",15,153,1958,477,23,2024-03-15 08:58:01,-3.638904,40.438278,"(-3.638904, 40.438278)"
412,"Calle José del Hierro esquina con Arturo Soria ,",15,154,1959,478,22,2024-03-15 08:58:01,-3.6410572,40.44152084,"(-3.6410572, 40.44152084)"
413,"Angel Muñoz, 1,",15,156,1960,479,27,2024-03-15 08:58:01,-3.6558371312827975,40.45478362295884,"(-3.6558371312827975, 40.45478362295884)"
414,"Calle Vicente Muzas, 13 ,",15,157,1961,480,23,2024-03-15 08:58:01,-3.66044255,40.45903315,"(-3.66044255, 40.45903315)"
415,"Diego Ayllon, 2,",15,156,1962,481,23,2024-03-15 08:58:01,-3.65219063,40.45117857,"(-3.65219063, 40.45117857)"
416,"Calle de Velero, 16 ,Comunidad de Madrid España",21,211,1963,554,27,2024-03-15 08:58:01,-3.5941,40.453,"(-3.5941, 40.453)"
417,"Avda. de Burgos, 17 ,",05,056,1964,284,23,2024-03-15 08:58:01,-3.6757900294303902,40.473593878889254,"(-3.6757900294303902, 40.473593878889254)"
418,"Calle Marcelino Álvarez, 31 ,",15,151,1966,483,23,2024-03-15 08:58:01,-3.6534324,40.4297428,"(-3.6534324, 40.4297428)"
419,"Calle Luis Campos, 3,",15,152,1967,484,23,2024-03-15 08:58:01,-3.632389,40.42893071,"(-3.632389, 40.42893071)"
420,"Calle carretera de canillas, 17 ,",16,163,1968,523,23,2024-03-15 08:58:01,-3.65089253,40.4628701,"(-3.65089253, 40.4628701)"
421,"Calle Santa María Magdalena, 15 ,",05,055,1969,285,23,2024-03-15 08:58:01,-3.6706,40.4631,"(-3.6706, 40.4631)"
422,"Plaza Duque de Pastrana, 2 ,",05,056,1970,286,23,2024-03-15 08:58:01,-3.6779,40.4679,"(-3.6779, 40.4679)"
423,"Calle de la Yuca, 1,",05,056,1971,287,23,2024-03-15 08:58:01,-3.6762,40.4765,"(-3.6762, 40.4765)"
424,"Calle Caídos de la División Azul, 28 ,",05,055,1972,288,23,2024-03-15 08:58:01,-3.6723,40.4664,"(-3.6723, 40.4664)"
425,"Glorieta de Luís Rosales (esquina con López De Hoyos) ,",16,164,1973,524,23,2024-03-15 08:58:01,-3.6543,40.4673,"(-3.6543, 40.4673)"
426,"Fuente Carrantona , 33,",14,143,1974,460,27,2024-03-15 08:58:01,-3.63192261,40.4070216,"(-3.63192261, 40.4070216)"
427,"Luis de Hoyos Sainz, 198,",14,141,1975,455,23,2024-03-15 08:58:01,-3.62927465,40.400094,"(-3.62927465, 40.400094)"
428,"Encomienda de Palacios, 8,",14,145,1976,456,23,2024-03-15 08:58:01,-3.6464,40.4005,"(-3.6464, 40.4005)"
429,"Calle Ramirez Tomé, 33 ,",13,135,1977,416,27,2024-03-15 08:58:01,-3.6459739361763055,40.38875618103898,"(-3.6459739361763055, 40.38875618103898)"
430,"Calle Romeo y Julieta, 12 ,",13,133,1978,417,27,2024-03-15 08:58:01,-3.66217563,40.37873799,"(-3.66217563, 40.37873799)"
431,"Calle Puerto de Arlabán, 83 ,",13,132,1979,418,27,2024-03-15 08:58:01,-3.6675,40.3864,"(-3.6675, 40.3864)"
432,"Calle Cronos, 57 ,",20,201,1980,496,27,2024-03-15 08:58:01,-3.6194333,40.4384695,"(-3.6194333, 40.4384695)"
433,"Calle Hermanos García Noblejas, 137 ,",20,204,1981,501,23,2024-03-15 08:58:01,-3.6242,40.4191,"(-3.6242, 40.4191)"
434,"Calle Alcalá, 546,",20,201,1982,498,27,2024-03-15 08:58:01,-3.6178317,40.44313349999999,"(-3.6178317, 40.44313349999999)"
435,"Calle Alcala, 590,",20,207,1983,499,23,2024-03-15 08:58:01,-3.6121996,40.4466561,"(-3.6121996, 40.4466561)"
436,"Calle Aracne, 17,",20,206,1984,500,27,2024-03-15 08:58:01,-3.5895,40.445,"(-3.5895, 40.445)"
437,"Calle Alcalá, 506,",20,201,1985,497,23,2024-03-15 08:58:01,-3.6274,40.4407,"(-3.6274, 40.4407)"
438,"Calle Puerto Serrano, 1 enfrente del nº 6 ,",02,024,1986,265,23,2024-03-15 08:58:01,-3.688461,40.385412,"(-3.688461, 40.385412)"
439,"Calle Comandante Fontanés, 1 ,",11,113,1987,351,22,2024-03-15 08:58:01,-3.7211209,40.3951415,"(-3.7211209, 40.3951415)"
440,"Calle Ervigio, 22 ,",11,113,1988,350,23,2024-03-15 08:58:01,-3.7315,40.3947,"(-3.7315, 40.3947)"
441,"Calle Julio Merino, 5 ,",12,124,1989,389,23,2024-03-15 08:58:01,-3.7032,40.3831,"(-3.7032, 40.3831)"
442,"Calle avena, 10 ,",12,126,1990,390,23,2024-03-15 08:58:01,-3.7159,40.3773,"(-3.7159, 40.3773)"
443,"Avenida de Cantabria, 6,",21,211,1991,556,24,2024-03-15 08:58:01,-3.58772201,40.45462514,"(-3.58772201, 40.45462514)"
444,"Paseo de la Alameda de Osuna, 48,",21,211,1992,555,27,2024-03-15 08:58:01,-3.59812171,40.45476837,"(-3.59812171, 40.45476837)"
445,"Calle Francisco Villaespesa, 37 ,",15,151,1993,485,23,2024-03-15 08:58:01,-3.6464629,40.4293263,"(-3.6464629, 40.4293263)"
446,"Calle Arzobispo Morcillo, 6,",08,085,1994,570,27,2024-03-15 08:58:01,-3.6938,40.4815,"(-3.6938, 40.4815)"
447,"Calle Hernani, 59 ,",06,062,1995,295,23,2024-03-15 08:58:01,-3.6972,40.4481,"(-3.6972, 40.4481)"
448,"Calle de la Costa Verde, 25-23 ,",06,064,1996,296,23,2024-03-15 08:58:01,-3.696862,40.469477,"(-3.696862, 40.469477)"
449,"Calle Simancas, 2,",06,064,1997,297,23,2024-03-15 08:58:01,-3.69511298,40.4655,"(-3.69511298, 40.4655)"
450,"Calle Gallur, 5,",10,101,1998,323,23,2024-03-15 08:58:01,-3.7359,40.3984,"(-3.7359, 40.3984)"
451,"Calle de las Higueras, 49,",10,103,1999,324,23,2024-03-15 08:58:01,-3.745096152114864,40.40457132475174,"(-3.745096152114864, 40.40457132475174)"
452,"Hacienda de Pavones, 148,",14,145,2000,457,23,2024-03-15 08:58:01,-3.6419,40.4026,"(-3.6419, 40.4026)"
453,"Calle de la Maquinilla, 8-10 ,",13,134,2001,432,24,2024-03-15 08:58:01,-3.63648424,40.38078101,"(-3.63648424, 40.38078101)"
454,"Calle Marqués de Viana, 85 ,",06,066,2002,298,19,2024-03-15 08:58:01,-3.704478,40.463643,"(-3.704478, 40.463643)"
455,"Calle Sierra de Guadalupe, 11 ,",18,181,2003,437,27,2024-03-15 08:58:01,-3.62376457,40.38135158,"(-3.62376457, 40.38135158)"
456,"Calle de la Verdad, 29,",11,112,2004,358,23,2024-03-15 08:58:01,-3.71716,40.391787,"(-3.71716, 40.391787)"
457,"Calle Algorta, 2,",11,113,2005,352,23,2024-03-15 08:58:01,-3.72745169,40.39162261454714,"(-3.72745169, 40.39162261454714)"
458,"Fernando Gabriel, 2 ,",15,152,2006,492,24,2024-03-15 08:58:01,-3.63949891,40.42466356,"(-3.63949891, 40.42466356)"
459,"Paseo de los Jesuitas, 69 ,",10,102,2007,322,27,2024-03-15 08:58:01,-3.7351,40.408,"(-3.7351, 40.408)"
460,"Avenida Córdoba, enfrente nº 21 ,",12,124,2008,392,23,2024-03-15 08:58:01,-3.697856,40.38268,"(-3.697856, 40.38268)"
461,"Calle Candilejas, 5 ,",13,133,2009,420,23,2024-03-15 08:58:01,-3.66300383,40.38263599,"(-3.66300383, 40.38263599)"
462,"Calle Puerto de Balbarán, 10,",13,133,2010,419,27,2024-03-15 08:58:01,-3.655868,40.3762374,"(-3.655868, 40.3762374)"
463,"Calle Cabeza de Mesada, 5,",18,183,2011,439,27,2024-03-15 08:58:01,-3.629413,40.37647902,"(-3.629413, 40.37647902)"
464,"Avenida de Orovilla, 53,",17,174,2012,398,27,2024-03-15 08:58:01,-3.6895,40.3587,"(-3.6895, 40.3587)"
465,"Avenida Monforte de Lemos, 13 ,",08,085,2013,569,23,2024-03-15 08:58:01,-3.6965,40.4795,"(-3.6965, 40.4795)"
466,"Calle Melchor Fernandez Almagro, 80,",08,084,2014,571,23,2024-03-15 08:58:01,-3.710326199999999,40.4756475,"(-3.710326199999999, 40.4756475)"
467,"Calle del Cobre, 6 ,",02,025,2017,268,23,2024-03-15 08:58:01,-3.689031463575172,40.39338327980599,"(-3.689031463575172, 40.39338327980599)"
468,"Paseo de la Florida, 37,",09,091,2019,305,23,2024-03-15 08:58:01,-3.72317757,40.42276114,"(-3.72317757, 40.42276114)"
469,"Avenida Del Santo Ángel de la Guarda, 6 ,",09,094,2020,306,23,2024-03-15 08:58:01,-3.7121965,40.4617959,"(-3.7121965, 40.4617959)"
470,"Calle Serrano Galvache 1,",15,159,2021,486,23,2024-03-15 08:58:01,-3.6679379,40.471382,"(-3.6679379, 40.471382)"
471,"Calle de Puertollano, 4-2 ,",20,208,2022,502,23,2024-03-15 08:58:01,-3.6237372,40.4425157,"(-3.6237372, 40.4425157)"
472,"Calle Gallegos 27,",19,191,2023,462,27,2024-03-15 08:58:01,-3.6102747,40.40240379,"(-3.6102747, 40.40240379)"
473,"Calle Arroyo del Olivar, 63,",13,133,2024,421,24,2024-03-15 08:58:01,-3.653269,40.388435,"(-3.653269, 40.388435)"
474,"Calle Manuel Uribe, 1,",15,158,2025,487,23,2024-03-15 08:58:01,-3.66503419,40.46434131,"(-3.66503419, 40.46434131)"
475,"422 - Travesia de Palomeras, 7,",13,132,2026,422,24,2024-03-15 08:58:01,-3.6705179,40.39017003,"(-3.6705179, 40.39017003)"
476,"Avenida de Entrevias, 56,",13,131,2027,423,24,2024-03-15 08:58:01,-3.66855013,40.38138801,"(-3.66855013, 40.38138801)"
477,"Camino de Valderribas, 47,",13,136,2028,424,24,2024-03-15 08:58:01,-3.663958,40.4002231,"(-3.663958, 40.4002231)"
478,"Calle Ramón Pérez de Ayala, 45 ,",13,136,2029,425,24,2024-03-15 08:58:01,-3.65381017,40.40003472,"(-3.65381017, 40.40003472)"
479,"Calle Humanes, 3,",13,135,2030,426,24,2024-03-15 08:58:01,-3.64932678,40.3952121,"(-3.64932678, 40.3952121)"
480,"Calle de los Andaluces, 2,",13,134,2031,427,24,2024-03-15 08:58:01,-3.64148304,40.3914244,"(-3.64148304, 40.3914244)"
481,"Avenida La Albufera, 136 ,",13,133,2032,428,24,2024-03-15 08:58:01,-3.6571,40.3919,"(-3.6571, 40.3919)"
482,"Calle Manuel Noya, 29 ,",12,125,2033,393,24,2024-03-15 08:58:01,-3.7117979,40.3853787,"(-3.7117979, 40.3853787)"
483,"Serrano Galvache, 56,",15,159,2034,489,24,2024-03-15 08:58:01,-3.67144504,40.47675257,"(-3.67144504, 40.47675257)"
484,"Calle Hermanos García Nobleza (esquina Plaza del Reloj Solar) ,",15,152,2035,490,24,2024-03-15 08:58:01,-3.62888094,40.42427523,"(-3.62888094, 40.42427523)"
485,"Calle Ricardo Ortiz, 33,",15,151,2036,488,24,2024-03-15 08:58:01,-3.65796439,40.42657032,"(-3.65796439, 40.42657032)"
486,"Calle Bacares, 20 ,",16,165,2037,525,24,2024-03-15 08:58:01,-3.66269029,40.47675499,"(-3.66269029, 40.47675499)"
487,"Calle de San Roman del Valle, 20,",20,204,2038,504,24,2024-03-15 08:58:01,-3.623466935545257,40.42309928573645,"(-3.623466935545257, 40.42309928573645)"
488,"Calle Zaldivar, 19 ,",20,201,2039,503,24,2024-03-15 08:58:01,-3.62650373,40.43209033,"(-3.62650373, 40.43209033)"
489,"Calle Arroyo Bueno, 53 ,",17,171,2040,404,27,2024-03-15 08:58:01,-3.710985,40.349111,"(-3.710985, 40.349111)"
490,"Calle Mercedes Arteaga, 21,",11,112,2041,353,24,2024-03-15 08:58:01,-3.722217570475459,40.39251608002938,"(-3.722217570475459, 40.39251608002938)"
491,"Calle de la Vía, 56 ,",11,112,2042,355,24,2024-03-15 08:58:01,-3.7182338,40.3854641,"(-3.7182338, 40.3854641)"
492,"Calle Francisco Tejada, 1 ,",10,102,2043,326,24,2024-03-15 08:58:01,-3.739615781020349,40.40937950320982,"(-3.739615781020349, 40.40937950320982)"
493,"Calle El Greco, 27 ,",10,103,2044,327,24,2024-03-15 08:58:01,-3.74726153,40.40741199,"(-3.74726153, 40.40741199)"
494,"Avenida Moratalaz, 33 ,",14,144,2046,459,24,2024-03-15 08:58:01,-3.66000272,40.40750626,"(-3.66000272, 40.40750626)"
495,"Corregidor licenciado Antonio de Mena, sn,",14,143,2047,461,24,2024-03-15 08:58:01,-3.6408,40.4099,"(-3.6408, 40.4099)"
496,"Calle Portalegre, 9 ,",11,112,2048,356,24,2024-03-15 08:58:01,-3.72364769,40.38937686,"(-3.72364769, 40.38937686)"
497,"Avenida Monforte de Lemos, 123,",08,084,2049,572,24,2024-03-15 08:58:01,-3.70997335,40.47810429,"(-3.70997335, 40.47810429)"
498,"Calle Melchor Fernandez Almagro, 16,",08,085,2050,573,24,2024-03-15 08:58:01,-3.69962571,40.47772776,"(-3.69962571, 40.47772776)"
499,"Ginzo de Limia, 36,",08,085,2051,575,24,2024-03-15 08:58:01,-3.703526,40.47817,"(-3.703526, 40.47817)"
500,"Calle Chantada, 14,",08,084,2052,574,24,2024-03-15 08:58:01,-3.710678,40.472695,"(-3.710678, 40.472695)"
501,"Paseo de Federico García Lorca, 2 ,",18,181,2053,440,18,2024-03-15 08:58:01,-3.62144691,40.3795035,"(-3.62144691, 40.3795035)"
502,"Calle Seis (esquina con Avenida Quinta),",20,206,2054,507,24,2024-03-15 08:58:01,-3.59650295,40.44845033,"(-3.59650295, 40.44845033)"
503,"Calle Rosario Pino, 17 ,",06,063,2055,299,24,2024-03-15 08:58:01,-3.69193246,40.46204955,"(-3.69193246, 40.46204955)"
504,"Calle Capitan Blanco Argibay, 112 ,",06,065,2056,300,24,2024-03-15 08:58:01,-3.7031882,40.4667435,"(-3.7031882, 40.4667435)"
505,"Calle Muller, 34 ,",06,065,2057,301,24,2024-03-15 08:58:01,-3.69837565,40.46518187,"(-3.69837565, 40.46518187)"
506,"Gran Avenida, 27,",12,121,2059,396,24,2024-03-15 08:58:01,-3.70760649,40.36997711,"(-3.70760649, 40.36997711)"
507,"Calle Periana, 24 ,",12,123,2060,394,24,2024-03-15 08:58:01,-3.68765805,40.36672327,"(-3.68765805, 40.36672327)"
508,"Calle Bohemios, 1 ,",17,175,2062,399,24,2024-03-15 08:58:01,-3.693901,40.356536,"(-3.693901, 40.356536)"
509,"Calle Torremolinos, 1 ,",13,134,2063,430,24,2024-03-15 08:58:01,-3.64178999,40.38500948,"(-3.64178999, 40.38500948)"
510,"Calle Ariel, 11 ,",02,024,2064,269,24,2024-03-15 08:58:01,-3.67970176633988,40.393023802369754,"(-3.67970176633988, 40.393023802369754)"
511,"Calle Esteban Collantes 63,",15,152,2065,491,24,2024-03-15 08:58:01,-3.637663,40.432883,"(-3.637663, 40.432883)"
512,"Calle Velacho Alto, 4-16 ,",16,165,2066,527,24,2024-03-15 08:58:01,-3.65926884,40.47250314,"(-3.65926884, 40.47250314)"
513,"Plaza del Liceo (esquina con Calle Silvano) ,",16,163,2067,526,24,2024-03-15 08:58:01,-3.64441924,40.45754368,"(-3.64441924, 40.45754368)"
514,"Calle Estación de Canfrac, 18 ,",13,136,2068,431,24,2024-03-15 08:58:01,-3.6634,40.3969,"(-3.6634, 40.3969)"
515,"Calle Carlos Martín Álvarez, 38 ,",13,133,2069,429,23,2024-03-15 08:58:01,-3.6635,40.3895,"(-3.6635, 40.3895)"
516,"Calle del Sorbe , 20,",11,111,2070,357,24,2024-03-15 08:58:01,-3.71320917,40.3898701,"(-3.71320917, 40.3898701)"
517,"Calle Teresa López Valcarcel (esquina calle Teniente Coronel Noreña),",02,024,2071,270,24,2024-03-15 08:58:01,-3.69328771,40.38862908,"(-3.69328771, 40.38862908)"
518,"Calle Arturo Soria (esquina con calle Jazmín),",15,159,2072,493,23,2024-03-15 08:58:01,-3.6684167,40.47636724,"(-3.6684167, 40.47636724)"
519,"Calle Villalobos, 28 ,",13,134,2073,433,24,2024-03-15 08:58:01,-3.65076037,40.38161669,"(-3.65076037, 40.38161669)"
520,"Calle Alan Turing, 2 ,",13,134,2074,436,23,2024-03-15 08:58:01,-3.62713659,40.3901675,"(-3.62713659, 40.3901675)"
521,"Calle Charleroi, 1 ,",13,134,2075,434,24,2024-03-15 08:58:01,-3.63219372,40.38191654,"(-3.63219372, 40.38191654)"
522,"Calle Albarracin, sn,",20,201,2076,506,24,2024-03-15 08:58:01,-3.63251641,40.43397327,"(-3.63251641, 40.43397327)"
523,"Calle Castillo de Ucles, 37,",20,201,2077,505,24,2024-03-15 08:58:01,-3.62306578,40.4315255,"(-3.62306578, 40.4315255)"
524,"Calle San Claudio, 150 ,",13,134,2078,435,24,2024-03-15 08:58:01,-3.63953994,40.38902883,"(-3.63953994, 40.38902883)"
525,"Calle Alcala  (acera de tránsito peatonal),",20,207,2079,508-old,0,2024-03-15 08:58:01,-3.60960104,40.44910362,"(-3.60960104, 40.44910362)"
526,"Paseo de la Dirección, 330, (enfrente) ,",06,065,2080,302,24,2024-03-15 08:58:01,-3.703955,40.4702445774,"(-3.703955, 40.4702445774)"
527,"Calle Casalarreina, 18,",19,191,2081,463,24,2024-03-15 08:58:01,-3.6123187980524585,40.40939089860396,"(-3.6123187980524585, 40.40939089860396)"
528,"Avenida de Daroca 321,",19,191,2082,464,24,2024-03-15 08:58:01,-3.61283416,40.40634029,"(-3.61283416, 40.40634029)"
529,"Paseo de los Gigantes y Cabezudos, 4,",17,175,2083,400,24,2024-03-15 08:58:01,-3.69399661,40.36064659,"(-3.69399661, 40.36064659)"
530,"Calle San Restituto, 74,",09,094,2084,307,24,2024-03-15 08:58:01,-3.71693008,40.46588016,"(-3.71693008, 40.46588016)"
531,"Paseo de la Dirección, 161,",06,065,2085,303,24,2024-03-15 08:58:01,-3.7080850848120273,40.46778929738312,"(-3.7080850848120273, 40.46778929738312)"
532,"Avenida El Ferrol, 18,",08,084,2086,576,24,2024-03-15 08:58:01,-3.70510525,40.47431313,"(-3.70510525, 40.47431313)"
533,"Calle Aurora boreal, 19 ,",08,084,2087,577,24,2024-03-15 08:58:01,-3.70566914,40.47899993,"(-3.70566914, 40.47899993)"
534,"Calle Ofelia Nieto, 75,",09,094,2088,309,24,2024-03-15 08:58:01,-3.708734,40.462051,"(-3.708734, 40.462051)"
535,"Calle María Auxiliadora, 1 ,",09,093,2089,308,24,2024-03-15 08:58:01,-3.71346147,40.45772941,"(-3.71346147, 40.45772941)"
536,"Avenida de Guadalajara, 101,",20,204,2090,510,24,2024-03-15 08:58:01,-3.61346199,40.42218968,"(-3.61346199, 40.42218968)"
537,"Calle Aquitania, 31,",20,204,2091,511,27,2024-03-15 08:58:01,-3.61726728,40.41912347,"(-3.61726728, 40.41912347)"
538,"Calle de los Aparejadores, 24,",20,204,2092,512,24,2024-03-15 08:58:01,-3.61537023,40.42667885,"(-3.61537023, 40.42667885)"
539,"Avenida de Niza, 9,",20,205,2093,513,27,2024-03-15 08:58:01,-3.60645414,40.4271211,"(-3.60645414, 40.4271211)"
540,"Calle Maria Sevilla Diago, 5,",20,205,2094,514,24,2024-03-15 08:58:01,-3.61095077,40.43283006,"(-3.61095077, 40.43283006)"
541,"Avenida de Hellin, 13,",20,202,2095,515,24,2024-03-15 08:58:01,-3.61579967,40.43091667,"(-3.61579967, 40.43091667)"
542,"Calle de El Toboso, 115,",11,113,2096,359,23,2024-03-15 08:58:01,-3.7363397,40.3929901,"(-3.7363397, 40.3929901)"
543,"Avenida Nuestra Señora de Fatima, 34,",11,114,2097,360,23,2024-03-15 08:58:01,-3.7470882,40.3840155,"(-3.7470882, 40.3840155)"
544,"Avenida de Abrantes, 106 ,",11,117,2098,361,23,2024-03-15 08:58:01,-3.73266666,40.37734672,"(-3.73266666, 40.37734672)"
545,"Avenida Santa Eugenia,1 ,",18,182,2099,441,24,2024-03-15 08:58:01,-3.60948153,40.38600753,"(-3.60948153, 40.38600753)"
546,"Avenida de Santa Eugenia con Calle sauzal, 1 ,",18,182,2100,442,27,2024-03-15 08:58:01,-3.60463,40.38305936,"(-3.60463, 40.38305936)"
547,"Calle Fuentespina, 33,",18,182,2101,443,24,2024-03-15 08:58:01,-3.60724755,40.37941487,"(-3.60724755, 40.37941487)"
548,"Calle Hilario Herránz Establos , 36,",11,116,2102,362,27,2024-03-15 08:58:01,-3.726638,40.372839,"(-3.726638, 40.372839)"
549,"Calle Rioja, 13,",21,211,2103,557,24,2024-03-15 08:58:01,-3.58815143,40.45746674,"(-3.58815143, 40.45746674)"
550,"Calle Francisco Suárez, 28 ,",05,055,2104,290,23,2024-03-15 08:58:01,-3.67994416,40.46437817,"(-3.67994416, 40.46437817)"
551,"Calle López de Hoyos, 478,",16,164,2105,529,23,2024-03-15 08:58:01,-3.649843,40.47175,"(-3.649843, 40.47175)"
552,"Calle de los Emigrantes, 15,",16,163,2106,530,27,2024-03-15 08:58:01,-3.63788349,40.4685745,"(-3.63788349, 40.4685745)"
553,"Calle de Santa Virgilia, 6,",16,164,2107,531,23,2024-03-15 08:58:01,-3.6450741,40.4768782,"(-3.6450741, 40.4768782)"
554,"Avenida Barranquilla, 17 ,",16,164,2108,532,24,2024-03-15 08:58:01,-3.6395164,40.47490194,"(-3.6395164, 40.47490194)"
555,"Avenida de San Luis, 23,",16,164,2109,533,23,2024-03-15 08:58:01,-3.65511455,40.47148748,"(-3.65511455, 40.47148748)"
556,"Calle Serrano nº 32,",04,041,2110,106A,19,2024-03-15 08:58:01,-3.687807,40.424924,"(-3.687807, 40.424924)"
557,"Calle de la Isla Graciosa, 2,",08,086,2111,582,24,2024-03-15 08:58:01,-3.6862657,40.49262243,"(-3.6862657, 40.49262243)"
558,"Calle de Angel Mugica, 3,",08,086,2112,583,24,2024-03-15 08:58:01,-3.68529048,40.48468297,"(-3.68529048, 40.48468297)"
559,"Avenida Monasterio de Silos, 63A,",08,088,2113,584,24,2024-03-15 08:58:01,-3.69603345,40.50501029,"(-3.69603345, 40.50501029)"
560,"Calle Molins de Rey, 8,",08,086,2114,585,24,2024-03-15 08:58:01,-3.69374813,40.4954662,"(-3.69374813, 40.4954662)"
561,"Calle Caldas de Estrach, 14,",08,086,2115,586,23,2024-03-15 08:58:01,-3.6974725,40.4963916,"(-3.6974725, 40.4963916)"
562,"Calle Mesena, 102 ,",16,165,2116,534,24,2024-03-15 08:58:01,-3.66340634,40.46772408,"(-3.66340634, 40.46772408)"
563,"Calle Costa Brava, 14,",08,087,2118,587,27,2024-03-15 08:58:01,-3.70865744,40.49892399,"(-3.70865744, 40.49892399)"
564,"Av. del Campo de Calatrava, 17,",08,086,2119,588,27,2024-03-15 08:58:01,-3.69112254,40.50052161,"(-3.69112254, 40.50052161)"
565,"Avenida Monasterio de Silos, 37,",08,088,2120,589,24,2024-03-15 08:58:01,-3.70290315,40.50340494,"(-3.70290315, 40.50340494)"
566,"Calle Ramón Power, 2 ,",16,163,2121,535,27,2024-03-15 08:58:01,-3.634999,40.463575,"(-3.634999, 40.463575)"
567,"Calle de Cebreros, 97 ,",10,103,2122,328,22,2024-03-15 08:58:01,-3.7521917,40.4032379,"(-3.7521917, 40.4032379)"
568,"Calle Alhambra, 56 ,",10,103,2123,329,23,2024-03-15 08:58:01,-3.74445208,40.3988162,"(-3.74445208, 40.3988162)"
569,"Calle Duquesa de Parcent, 14 ,",10,104,2124,330,23,2024-03-15 08:58:01,-3.7447281,40.39500224,"(-3.7447281, 40.39500224)"
570,"Calle Valmojado, 33 ,",10,104,2125,331,24,2024-03-15 08:58:01,-3.75757186,40.39649629,"(-3.75757186, 40.39649629)"
571,"Calle de los Yébenes, 159 ,",10,104,2126,332,23,2024-03-15 08:58:01,-3.75181704,40.39302789,"(-3.75181704, 40.39302789)"
572,"Avenida de Oporto, 34,",11,112,2128,364,22,2024-03-15 08:58:01,-3.72378064,40.38550735,"(-3.72378064, 40.38550735)"
573,"Calle de Boj, 4 ,",16,161,2129,536,23,2024-03-15 08:58:01,-3.6180818,40.4560204,"(-3.6180818, 40.4560204)"
574,"Avenida de Machupichu, 23,",16,162,2130,537,27,2024-03-15 08:58:01,-3.62579439,40.45841466,"(-3.62579439, 40.45841466)"
575,"Calle de Haendel, 8,",16,163,2131,538,27,2024-03-15 08:58:01,-3.62532131,40.46275082,"(-3.62532131, 40.46275082)"
576,"Calle Illescas, 104 ,",10,104,2132,333,23,2024-03-15 08:58:01,-3.7562323,40.392175,"(-3.7562323, 40.392175)"
577,"Avenida Plaza de Toros, 3 ,",11,114,2133,365,23,2024-03-15 08:58:01,-3.73725908,40.38537202,"(-3.73725908, 40.38537202)"
578,"Paseo de Marcelino Camacho, 53 ,",11,114,2134,366,23,2024-03-15 08:58:01,-3.744521,40.387737,"(-3.744521, 40.387737)"
579,"Avenida Alfonso XIII, 113,",05,054,2135,291,23,2024-03-15 08:58:01,-3.66790332,40.45866532,"(-3.66790332, 40.45866532)"
580,"Calle Pradillo, 33,",05,053,2136,292,23,2024-03-15 08:58:01,-3.6717937,40.44904126,"(-3.6717937, 40.44904126)"
581,"Arturo Soria, 332,",15,159,2137,494,23,2024-03-15 08:58:01,-3.666529,40.480694,"(-3.666529, 40.480694)"
582,"Calle Juan Ignacio Luca de Tena, 13 ,",20,208,2138,516,27,2024-03-15 08:58:01,-3.63110255,40.44796778,"(-3.63110255, 40.44796778)"
583,"Calle Eugenia de Montijo, 57 ,",11,115,2139,368,15,2024-03-15 08:58:01,-3.74706068,40.3791024,"(-3.74706068, 40.3791024)"
584,"Plaza De la Parroquia, 19 ,",11,115,2140,369,23,2024-03-15 08:58:01,-3.7415832,40.3802446,"(-3.7415832, 40.3802446)"
585,"Calle de Avefria, 26,",11,115,2141,370,23,2024-03-15 08:58:01,-3.7308025,40.38386939,"(-3.7308025, 40.38386939)"
586,"Calle Maria de Maeztu, 50,",08,087,2142,590,27,2024-03-15 08:58:01,-3.72757227,40.49093014,"(-3.72757227, 40.49093014)"
587,"Calle de San Mariano, 52-60 ,",20,207,2143,517,27,2024-03-15 08:58:01,-3.61190481,40.44175279,"(-3.61190481, 40.44175279)"
588,"Calle Tampico, 71 ,",20,208,2144,518,23,2024-03-15 08:58:01,-3.635345,40.444569,"(-3.635345, 40.444569)"
589,"Calle Lonja de la Seda, 33,",11,116,2146,372,23,2024-03-15 08:58:01,-3.76158263,40.36612215,"(-3.76158263, 40.36612215)"
590,"Calle Salvador Allende, 28 ,",11,116,2147,373,23,2024-03-15 08:58:01,-3.75787005,40.36277848,"(-3.75787005, 40.36277848)"
591,"Calle del Dinero, 38,",11,116,2148,374,27,2024-03-15 08:58:01,-3.7501466,40.3625707,"(-3.7501466, 40.3625707)"
592,"Calle Calderilla, 4,",11,116,2149,375,27,2024-03-15 08:58:01,-3.7386603,40.3651497,"(-3.7386603, 40.3651497)"
593,"Av.Ventisquero de la Condesa, 37,",08,087,2150,591,19,2024-03-15 08:58:01,-3.71622921,40.49108225,"(-3.71622921, 40.49108225)"
594,"Calle de Gloria Fuertes, 180,",08,087,2151,592,27,2024-03-15 08:58:01,-3.7249527,40.4956969,"(-3.7249527, 40.4956969)"
595,"Calle Alicante, nº3 ,",02,025,2368,176,0,2024-03-15 08:58:01,-3.6939412,40.3941856,"(-3.6939412, 40.3941856)"
596,"Calle Moreja, 30 ,",12,122,2061,397,24,2024-03-15 08:58:01,-3.69838038,40.36809336,"(-3.69838038, 40.36809336)"
597,"Calle Manuel Silvela nº 20,",07,073,1530,124,27,2024-03-15 08:58:01,-3.6993695,40.430969,"(-3.6993695, 40.430969)"
598,"Calle del Tejo, 22 ,",02,027,2305,272,23,2024-03-15 08:58:01,-3.679186,40.39663,"(-3.679186, 40.39663)"
599,"Avenida de Oporto, 102,",11,112,2127,363,23,2024-03-15 08:58:01,-3.72987333,40.38745087,"(-3.72987333, 40.38745087)"
600,"Calle Ramon Gomez de la Serna, 37,",08,083,2164,596,24,2024-03-15 08:58:01,-3.72382554,40.48432751,"(-3.72382554, 40.48432751)"
601,"Calle Valle de Mena, 5,",09,094,2015,304,23,2024-03-15 08:58:01,-3.71527245,40.46962735,"(-3.71527245, 40.46962735)"
602,"Calle del Arroyo Belincoso, 26,",14,143,2045,458,24,2024-03-15 08:58:01,-3.65256604,40.40991083,"(-3.65256604, 40.40991083)"
603,"Paseo de la Castellana nº 42,",04,046,1548,142,23,2024-03-15 08:58:01,-3.6879154,40.4334087,"(-3.6879154, 40.4334087)"
604,"Calle Manuela Malasaña nº 3,",01,015,1408,4,27,2024-03-15 08:58:01,-3.7025,40.4286259,"(-3.7025, 40.4286259)"
605,"Avenida Menéndez pelayo (esquina con calle Poeta Esteban Villegas),",03,035,1477,75,27,2024-03-15 08:58:01,-3.6784749,40.4082717,"(-3.6784749, 40.4082717)"
606,"Calle Joaquin Turina, 49,",11,116,2145,371,27,2024-03-15 08:58:01,-3.76182,40.372458,"(-3.76182, 40.372458)"
607,"Campuzano, 1,",15,152,1965,482,23,2024-03-15 08:58:01,-3.6423386,40.4356873,"(-3.6423386, 40.4356873)"
608,"Calle de las Delicias, 41 ,",02,026,2117,273,19,2024-03-15 08:58:01,-3.69091831,40.40381914,"(-3.69091831, 40.40381914)"
609,"Calle Camilo José Cela, 27,",04,044,1647,241,23,2024-03-15 08:58:01,-3.66779,40.4378,"(-3.66779, 40.4378)"
610,"Ronda de Atocha nº 34,",01,012,1453,49,27,2024-03-15 08:58:01,-3.6992774,40.4060533,"(-3.6992774, 40.4060533)"
611,"Alcala-Ventas ,",04,043,1593,187,23,2024-03-15 08:58:01,-3.6638249,40.4301326,"(-3.6638249, 40.4301326)"
