,address,code_district,code_suburb,dock_bikes,free_bases,id,light,name,no_available,number,reservations_count,total_bases,date_time,longitude,latitude,coordinates
0,"Calle María de las Mercedes de Borbón, 214,",16,166,13,10,2365,2,"262 - María de las Mercedes de Borbón, 214",0,262,0,23,2024-02-12 13:34:45,-3.620114,40.4928683,"(-3.620114, 40.4928683)"
1,"Calle María de las Mercedes de Borbón, 98,",16,166,4,19,2366,0,"611 - María de las Mercedes de Borbón, 98",0,611,0,23,2024-02-12 13:34:45,-3.6121068531215528,40.490908297996654,"(-3.6121068531215528, 40.490908297996654)"
2,"237- calle Francisco Balseiro,Comunidad de Madrid España",06,061,19,5,2362,1,237 -  calle Francisco Balseiro,0,237,0,24,2024-02-12 13:34:45,-3.7102736,40.4516819,"(-3.7102736, 40.4516819)"
3,"para borrar,",16,166,0,0,1404,3,0 - para borrar,1,0,0,0,2024-02-12 13:34:45,-3.62018,40.49291,"(-3.62018, 40.49291)"
4,"Calle Miguel Moya nº 1,",01,015,12,15,1406,2,2 - Miguel Moya,0,2,0,27,2024-02-12 13:34:45,-3.70569,40.4204,"(-3.70569, 40.4204)"
5,"Plaza del Conde del Valle de Súchil nº 3,",07,072,5,14,1407,0,3 - Plaza Conde Suchil,0,3,0,19,2024-02-12 13:34:45,-3.7072537,40.4303223,"(-3.7072537, 40.4303223)"
6,"Calle Manuela Malasaña nº 5,",01,015,21,6,1408,1,4 - Malasaña,0,4,0,27,2024-02-12 13:34:45,-3.7025,40.4286259,"(-3.7025, 40.4286259)"
7,"C. de Castiello de Jaca, 14,",08,086,20,3,2352,1,"603 - C. de Castiello de Jaca, 14",0,603,0,23,2024-02-12 13:34:45,-3.6782027,40.5091982,"(-3.6782027, 40.5091982)"
8,"Bardegueral 15,Comunidad de Madrid España",09,097,11,12,2360,2,610 - Bardegueral,0,610,0,23,2024-02-12 13:34:45,-3.7719097,40.4501721,"(-3.7719097, 40.4501721)"
9,"Calle Fuencarral nº 108,",01,014,11,16,1409,2,5 - Fuencarral,0,5,0,27,2024-02-12 13:34:45,-3.7021354,40.4285212,"(-3.7021354, 40.4285212)"
10,"Calle Hortaleza nº 63,",01,014,11,8,1410,2,6 - Colegio Arquitectos,0,6,0,19,2024-02-12 13:34:45,-3.698447,40.424148,"(-3.698447, 40.424148)"
11,"Calle Hortaleza nº 75,",01,014,15,4,1411,1,7 - Hortaleza,0,7,0,19,2024-02-12 13:34:45,-3.6977715,40.4251906,"(-3.6977715, 40.4251906)"
12,"Plaza de Alonso Martínez nº 5,",07,074,18,5,1412,1,8 - Alonso Martínez,0,8,0,24,2024-02-12 13:34:45,-3.6954403,40.4278682,"(-3.6954403, 40.4278682)"
13,"Plaza de San Miguel nº 9,",01,011,11,13,1413,2,9 - Plaza de San Miguel,0,9,0,24,2024-02-12 13:34:45,-3.7095084,40.4156057,"(-3.7095084, 40.4156057)"
14,"Calle Marqués de la Ensenada nº 16,",01,014,19,4,1414,1,10 - Marqués de la Ensenada,0,10,0,23,2024-02-12 13:34:45,-3.692104,40.425403,"(-3.692104, 40.425403)"
15,"Calle San Andrés nº 18,",01,015,1,22,1415,0,11 - San Andrés,0,11,0,23,2024-02-12 13:34:45,-3.7036,40.427,"(-3.7036, 40.427)"
16,"Calle San Bernardo nº 85,",01,015,18,9,1416,2,12 - San Hermenegildo,0,12,0,27,2024-02-12 13:34:45,-3.7061406,40.4284667,"(-3.7061406, 40.4284667)"
17,"Avda del Ensanche de Vallecas, 80,",18,183,7,20,2340,0,"448 - Avda del Ensanche de Vallecas, 80",0,448,0,27,2024-02-12 13:34:45,-3.599352,40.363376,"(-3.599352, 40.363376)"
18,"Calle de los Pinillas, 19,",19,192,10,17,2341,2,"472 - Calle de los Pinillas, 19",0,472,0,27,2024-02-12 13:34:45,-3.6211485,40.3987974,"(-3.6211485, 40.3987974)"
19,"473 - Calle de Vilablanca, frente  85,",19,191,19,8,2342,1,"473 - Calle de Villablanca, frente  85",0,473,0,27,2024-02-12 13:34:45,-3.59888007,40.40500033,"(-3.59888007, 40.40500033)"
20,"Calle San Cipriano, 124,",19,193,17,10,2343,2,"474 - Calle San Cipriano, 124",0,474,0,27,2024-02-12 13:34:45,-3.596875,40.402255,"(-3.596875, 40.402255)"
21,"541- Avda. Gran Vía de Hortaleza, 68,",16,163,12,11,2347,2,"541 - Avda. Gran Vía de Hortaleza, 68",0,541,0,23,2024-02-12 13:34:45,-3.6468591,40.4682706,"(-3.6468591, 40.4682706)"
22,"546 - Calle Andorra, 6,",16,163,11,12,2348,2,"546 - Calle Andorra, 6",0,546,0,23,2024-02-12 13:34:45,-3.6467519,40.4628976,"(-3.6467519, 40.4628976)"
23,"550 - Calle del Príncipe Carlos, 54,",16,166,10,13,2349,2,"550 - Calle del Príncipe Carlos, 54",0,550,0,23,2024-02-12 13:34:45,-3.656674,40.4941108,"(-3.656674, 40.4941108)"
24,"553 - Calle de María de Portugal, 24,",16,166,12,11,2350,2,"553 - Calle de María de Portugal, 24",0,553,0,23,2024-02-12 13:34:45,-3.658921,40.499909,"(-3.658921, 40.499909)"
25,"601 -  Estación  Cerc. Fuencarral-El Pardo, ,",08,086,0,23,2351,0,"601 -  Estación  Cerc. Fuencarral-El Pardo, ",0,601,0,23,2024-02-12 13:34:45,-3.6824687,40.5015588,"(-3.6824687, 40.5015588)"
26,"Paseo de las Yeserías, 15,",02,022,1,22,2333,0,"276 - Paseo de las Yeserías, 15",0,276,0,23,2024-02-12 13:34:45,-3.7099166,40.39900539,"(-3.7099166, 40.39900539)"
27,"340 - Calle Illescas, 1C,",10,104,18,9,2334,2,"340 - Calle Illescas, 1C",0,340,0,27,2024-02-12 13:34:45,-3.7656976,40.3970983,"(-3.7656976, 40.3970983)"
28,"Calle Osa de la Vega, 25-103,",10,107,5,18,2335,0,"342 - Calle Osa de la Vega, 25-103",0,342,0,23,2024-02-12 13:34:45,-3.773381,40.374979,"(-3.773381, 40.374979)"
29,"381 - Alfredo Aleix, 7,",11,116,5,19,2337,0,"381 - Alfredo Aleix, 7",0,381,0,24,2024-02-12 13:34:45,-3.7553916,40.3684767,"(-3.7553916, 40.3684767)"
30,"444 - Calle de Valderrobollo, 18,",18,183,20,3,2339,1,"444 - Calle de Valderrebollo, 18",0,444,0,23,2024-02-12 13:34:45,-3.6276352,40.3743481,"(-3.6276352, 40.3743481)"
31,"Calle Conde Duque nº 22,",01,015,3,20,1417,0,13 - Conde Duque,0,13,0,23,2024-02-12 13:34:45,-3.7105,40.4273,"(-3.7105, 40.4273)"
32,"Ventura Rodriguez, 2,",09,092,15,12,1418,2,14 - Ventura Rodríguez,0,14,0,27,2024-02-12 13:34:45,-3.7133069,40.4260425,"(-3.7133069, 40.4260425)"
33,"Calle norte nº 8,",01,015,0,19,1419,0,15 - Norte,0,15,0,19,2024-02-12 13:34:45,-3.7074453,40.4262383,"(-3.7074453, 40.4262383)"
34,"Calle San Bernardo nº 22,",01,015,11,8,1420,2,16 - San Bernardo,0,16,0,19,2024-02-12 13:34:45,-3.7074808485065,40.4229374,"(-3.7074808485065, 40.4229374)"
35,"Plaza de Carlos Cambronero nº 2,",01,015,2,21,1421,0,17 - Carlos Cambronero,0,17,0,23,2024-02-12 13:34:45,-3.704166,40.423126,"(-3.704166, 40.423126)"
36,"Plaza de Pedro Zerolo nº 1,",01,014,2,22,1422,0,18 - Plaza de Pedro Zerolo,0,18,0,24,2024-02-12 13:34:45,-3.6996776,40.4209251,"(-3.6996776, 40.4209251)"
37,"Calle Prim nº 2,",01,014,27,1,1423,1,"19 - Calle Prim, 2",0,19,0,28,2024-02-12 13:34:45,-3.6954983,40.4218616,"(-3.6954983, 40.4218616)"
38,"Calle Alcalá nº 49,",01,013,21,6,1424,1,20a - Banco de España A,0,20a,0,27,2024-02-12 13:34:45,-3.6952465,40.4188076,"(-3.6952465, 40.4188076)"
39,"Calle Jacometrezo nº 3,",01,016,0,0,1425,3,22 - Jacometrezo,1,22,0,3,2024-02-12 13:34:45,-3.7065376,40.4200783,"(-3.7065376, 40.4200783)"
40,"Plaza de Santo Domingo nº 1,",01,011,13,11,1426,2,23 - Santo Domingo,0,23,0,24,2024-02-12 13:34:45,-3.708249,40.4202595,"(-3.708249, 40.4202595)"
41,"Calle Carlos III nº 1,",01,011,11,7,1427,2,24 - Palacio de Oriente,0,24,0,18,2024-02-12 13:34:45,-3.7106495,40.417767,"(-3.7106495, 40.417767)"
42,"Plaza de Celenque nº 1,",01,016,21,3,1428,1,25a - Plaza de Celenque A,0,25a,0,24,2024-02-12 13:34:45,-3.7057791,40.4173703,"(-3.7057791, 40.4173703)"
43,"Plaza de Celenque nº 1,",01,016,19,5,1429,1,25b - Plaza de Celenque B,0,25b,0,24,2024-02-12 13:34:45,-3.7058976,40.4173687,"(-3.7058976, 40.4173687)"
44,"Plaza de las Salesas 7,",01,014,24,3,1430,1,26 - Plaza de las Salesas,0,26,0,27,2024-02-12 13:34:45,-3.6945,40.4239,"(-3.6945, 40.4239)"
45,"Calle Jesús nº 1,",01,013,4,22,1431,0,27 - Huertas,0,27,0,27,2024-02-12 13:34:45,-3.6957,40.4133,"(-3.6957, 40.4133)"
46,"Calle Alcalá nº 27,",01,013,15,3,1432,1,28 - Sevilla,0,28,0,18,2024-02-12 13:34:45,-3.6984583,40.41806,"(-3.6984583, 40.41806)"
47,"Calle del Marqués de Cubas nº 25,",01,013,22,1,1433,1,29 - Marqués de Cubas,0,29,0,23,2024-02-12 13:34:45,-3.6957434,40.4163838,"(-3.6957434, 40.4163838)"
48,"Calle Pavía nº 6,",01,011,16,11,1434,2,30 - San Quintín,0,30,0,27,2024-02-12 13:34:45,-3.711504,40.4192095,"(-3.711504, 40.4192095)"
49,"Calle Mayor nº 20,",01,016,21,6,1435,1,31 - Calle Mayor,0,31,0,27,2024-02-12 13:34:45,-3.7068969,40.4163638,"(-3.7068969, 40.4163638)"
50,"Plaza de la Provincia nº 1,",01,016,10,8,1436,2,32 - Plaza de la Provincia,0,32,0,18,2024-02-12 13:34:45,-3.7061032,40.4150099,"(-3.7061032, 40.4150099)"
51,"Calle Carretas nº 8,",01,016,17,6,1437,1,33 - Carretas,0,33,0,23,2024-02-12 13:34:45,-3.7033305,40.4165873,"(-3.7033305, 40.4165873)"
52,"Plaza de Jacinto Benavente,",01,016,12,12,1438,2,34 - Jacinto Benavente,0,34,0,24,2024-02-12 13:34:45,-3.7036825,40.4146755,"(-3.7036825, 40.4146755)"
53,"Plaza del Cordón,",01,011,5,19,1439,0,35 - Plaza del Cordón,0,35,0,24,2024-02-12 13:34:45,-3.7103285,40.4141931,"(-3.7103285, 40.4141931)"
54,"Plaza de Ramales,",01,011,19,5,1440,1,36 - Plaza Ramales,0,36,0,24,2024-02-12 13:34:45,-3.71183,40.4168,"(-3.71183, 40.4168)"
55,"Plaza de San Francisco nº 5,",01,011,21,3,1441,1,37 - Plaza de San Francisco,0,37,0,24,2024-02-12 13:34:45,-3.714113,40.4108,"(-3.714113, 40.4108)"
56,"Carrera de San Francisco nº 1,",01,011,2,25,1442,0,38 - Plaza de los Carros,0,38,0,27,2024-02-12 13:34:45,-3.7115898,40.4113586,"(-3.7115898, 40.4113586)"
57,"Plaza de la Cebada nº 16 ,",01,011,22,9,1443,1,39 - Plaza de la Cebada,0,39,0,31,2024-02-12 13:34:45,-3.7088337,40.4112744,"(-3.7088337, 40.4112744)"
58,"Plaza del Conde de Romanones nº 9,",01,012,8,10,1444,2,40 - Conde de Romanones,0,40,0,18,2024-02-12 13:34:45,-3.7047949666162405,40.413778406369765,"(-3.7047949666162405, 40.413778406369765)"
59,"Calle Atocha nº 54,",01,012,13,6,1445,2,41 - Antón Martín,0,41,0,19,2024-02-12 13:34:45,-3.6991147,40.4122047,"(-3.6991147, 40.4122047)"
60,"Calle Santa Isabel 32,",01,012,2,25,1446,0,42 - Santa Isabel,0,42,0,27,2024-02-12 13:34:45,-3.6982922,40.4108488,"(-3.6982922, 40.4108488)"
61,"Calle Lavapiés nº 34,",01,012,1,17,1447,0,43 - Jesús y María,0,43,0,18,2024-02-12 13:34:45,-3.702471,40.4100387,"(-3.702471, 40.4100387)"
62,"Calle Mesón de Paredes nº 35,",01,012,3,16,1448,0,44 - Plaza de Nelson Mandela,0,44,0,19,2024-02-12 13:34:45,-3.7038640533106593,40.40979071254635,"(-3.7038640533106593, 40.40979071254635)"
63,"Glorieta de la Puerta de Toledo nº 1,",01,012,18,1,1449,1,45 - Puerta de Toledo,0,45,0,19,2024-02-12 13:34:45,-3.7111034,40.4068659,"(-3.7111034, 40.4068659)"
64,"Calle Ribera de Curtidores nº 28,",02,022,21,6,1450,1,46 - Ribera de Curtidores,0,46,0,27,2024-02-12 13:34:45,-3.7071259,40.4053153,"(-3.7071259, 40.4053153)"
65,"Glorieta de Embajadores nº 6,",02,022,14,10,1451,2,47 - Embajadores 1,0,47,0,24,2024-02-12 13:34:45,-3.7027998,40.4045772,"(-3.7027998, 40.4045772)"
66,"Glorieta de Embajadores nº 2,",01,012,2,22,1452,0,48 - Embajadores 2,0,48,0,24,2024-02-12 13:34:45,-3.7020566,40.4054815,"(-3.7020566, 40.4054815)"
67,"Ronda de Atocha nº 34,",01,012,14,12,1453,2,49 - Casa Encendida,0,49,0,27,2024-02-12 13:34:45,-3.6992774,40.4060533,"(-3.6992774, 40.4060533)"
68,"Calle Santa Isabel nº 57,",01,012,21,3,1454,1,50 - Museo Reina Sofía,0,50,0,24,2024-02-12 13:34:45,-3.6933463,40.4083684,"(-3.6933463, 40.4083684)"
69,"Ronda de Atocha nº 2,",01,012,27,0,1455,1,51 - Ronda de Atocha,0,51,0,27,2024-02-12 13:34:45,-3.6935205,40.4075606,"(-3.6935205, 40.4075606)"
70,"Plaza de Santa Ana nº 10,",01,013,12,2,1456,1,52 - Plaza de Santa Ana,0,52,0,15,2024-02-12 13:34:45,-3.7007164,40.4144226,"(-3.7007164, 40.4144226)"
71,"Calle Valencia nº 1,",01,012,17,7,1457,1,53 - Plaza de Lavapiés,0,53,0,24,2024-02-12 13:34:45,-3.700754126389314,40.40830870823806,"(-3.700754126389314, 40.40830870823806)"
72,"Calle Barceló nº 7,",01,014,11,8,1458,2,54 - Barceló,0,54,0,19,2024-02-12 13:34:45,-3.700392997553259,40.426599101766264,"(-3.700392997553259, 40.426599101766264)"
73,"Plaza de San Ildefonso,",01,015,3,21,1459,0,55 - Plaza de San Ildefonso,0,55,0,24,2024-02-12 13:34:45,-3.7020842,40.4239757,"(-3.7020842, 40.4239757)"
74,"Plaza del Carmen nº 1,",01,016,14,9,1460,2,56 - Plaza del Carmen ,0,56,0,23,2024-02-12 13:34:45,-3.7032414,40.4184192,"(-3.7032414, 40.4184192)"
75,"Calle Santa Cruz del Marcenado nº 24,",01,015,12,11,1461,2,57 - Santa Cruz del Marcenado,0,57,0,23,2024-02-12 13:34:45,-3.7126299,40.4295658,"(-3.7126299, 40.4295658)"
76,"Calle Augusto Figueroa nº 33,",01,014,17,10,1462,2,58 - Augusto Figueroa,0,58,0,27,2024-02-12 13:34:45,-3.6978583,40.4222783,"(-3.6978583, 40.4222783)"
77,"Calle Espíritu Santo nº 30,",01,015,2,17,1463,0,59 - Plaza de Juan Pujol,0,59,0,19,2024-02-12 13:34:45,-3.7043418,40.4255495,"(-3.7043418, 40.4255495)"
78,"Plaza de la Independencia nº 6,",03,035,14,9,1464,2,60 - Plaza de la Independencia,0,60,0,23,2024-02-12 13:34:45,-3.688398,40.419752,"(-3.688398, 40.419752)"
79,"Calle O'Donnell nº 28,",03,034,13,14,1465,2,61 - Narváez,0,61,0,27,2024-02-12 13:34:45,-3.6753139,40.4214551,"(-3.6753139, 40.4214551)"
80,"Calle O'Donnell nº 50,",03,034,20,7,1466,1,62 - O'Donnell,0,62,0,27,2024-02-12 13:34:45,-3.6724968,40.4213148,"(-3.6724968, 40.4213148)"
81,"Calle Ibiza nº 62,",03,034,19,4,1467,1,63 - Ibiza,0,63,0,23,2024-02-12 13:34:45,-3.6708959,40.4179237,"(-3.6708959, 40.4179237)"
82,"Calle Antonio Maura nº 15,",03,035,11,13,1468,2,65 - Antonio Maura,0,65,0,24,2024-02-12 13:34:45,-3.689424797942769,40.4167014469994,"(-3.689424797942769, 40.4167014469994)"
83,"Calle Almadén nº 28,",01,013,6,17,1469,0,67 - Almadén,0,67,0,23,2024-02-12 13:34:45,-3.693225,40.4108472,"(-3.693225, 40.4108472)"
84,"Calle Espalter nº 1,",03,035,7,12,1470,2,68 - Espalter,0,68,0,19,2024-02-12 13:34:45,-3.6913232,40.4127692,"(-3.6913232, 40.4127692)"
85,"Avenida de Alfonso XII nº 54,",03,035,22,5,1471,1,69 - Puerta del Ángel Caído,0,69,0,27,2024-02-12 13:34:45,-3.688822,40.409808,"(-3.688822, 40.409808)"
86,"Avenida de Menéndez Pelayo nº 63,",03,035,23,3,1472,1,70 - Puerta del Doce de Octubre,0,70,0,27,2024-02-12 13:34:45,-3.677872542327878,40.415382385574716,"(-3.677872542327878, 40.415382385574716)"
87,"Calle Doce de Octubre nº 28,",03,034,7,16,1473,0,71 - Doce de Octubre,0,71,0,23,2024-02-12 13:34:45,-3.6739,40.4161,"(-3.6739, 40.4161)"
88,"Calle Doctor Esquerdo nº 99,",03,036,13,10,1474,2,72 - Sainz de Baranda,0,72,0,23,2024-02-12 13:34:45,-3.6696,40.4159,"(-3.6696, 40.4159)"
89,"Avd. Ciudad de Barcelona, 2,",03,035,13,10,2274,2,"80-A - 80A - Avd. Ciudad de Barcelona, 2",0,80-A,0,23,2024-02-12 13:34:45,-3.690538,40.407573,"(-3.690538, 40.407573)"
90,"Avd ciudad de Barcelona , 2,",03,035,22,5,2275,1,"80-B - 80B - Avd ciudad de Barcelona ,2",0,80-B,0,26,2024-02-12 13:34:45,-3.6904748,40.4075211,"(-3.6904748, 40.4075211)"
91,"Adolfo Bioy Casares, 9,",18,183,22,5,2276,1,"447 - Calle de Adolfo Bioy Casares, 9",0,447,0,27,2024-02-12 13:34:45,-3.5981935,40.3668504,"(-3.5981935, 40.3668504)"
92,"Calle San Jenaro, 1,",17,171,9,15,2278,2,"412 - San Jenaro, 1",0,412,0,24,2024-02-12 13:34:45,-3.7043083,40.3500291,"(-3.7043083, 40.3500291)"
93,"Calle  Diamante, 10,",17,174,13,11,2279,2,"415 - Diamante, 10",0,415,0,24,2024-02-12 13:34:45,-3.6877534,40.3532609,"(-3.6877534, 40.3532609)"
94,"Calle Doctor Martín Arévalo, 19,",17,171,20,4,2280,1,"413 - Doctor Martín Arévalo, 19",0,413,0,24,2024-02-12 13:34:45,-3.707413,40.345928,"(-3.707413, 40.345928)"
95,"Calle Zapatoca, 8,",16,164,18,5,2281,1,"545 - Zapatoca, 8",0,545,0,23,2024-02-12 13:34:45,-3.63335803,40.47285235,"(-3.63335803, 40.47285235)"
96,"Plaza Mayor de Barajas, 24,",21,213,8,16,2282,2,"567 - Plaza Mayor de Barajas, 24",0,567,0,24,2024-02-12 13:34:45,-3.5776537,40.4733252,"(-3.5776537, 40.4733252)"
97,"Calle Soto Hidalgo, 2,",21,211,13,14,2283,2,"563 - Soto Hidalgo, 2",0,563,0,27,2024-02-12 13:34:45,-3.5820745,40.4606465,"(-3.5820745, 40.4606465)"
98,"Paseo Reina Cristina,6,",03,031,11,12,2285,2,"281 - Paseo Reina Cristina,6",0,281,0,23,2024-02-12 13:34:45,-3.6831862,40.4067247,"(-3.6831862, 40.4067247)"
99,"Ronda de la comunicacion,",08,086,11,12,2286,2,609 - Ronda de la comunicacion,0,609,0,23,2024-02-12 13:34:45,-3.6626887,40.5157202,"(-3.6626887, 40.5157202)"
100,"calle Moncada 102,",17,172,9,14,2287,2,408 - Moncada 102,0,408,0,23,2024-02-12 13:34:45,-3.692444,40.341725,"(-3.692444, 40.341725)"
101,"Calle Eduardo Barreiros 114,",17,175,14,9,2288,2,409 - Calle Eduardo Barreiros 114,0,409,0,23,2024-02-12 13:34:45,-3.7046436,40.3553495,"(-3.7046436, 40.3553495)"
102,"Calle Fermín Caballero 2,",08,085,4,19,2289,0,606 - Calle Fermín Caballero 2,0,606,0,23,2024-02-12 13:34:45,-3.698485,40.487363,"(-3.698485, 40.487363)"
103,"calle de la huerta de castañeda 26,",10,103,16,8,2290,2,349 - Huerta de Castañeda 26,0,349,0,24,2024-02-12 13:34:45,-3.74201882097404,40.40622095698234,"(-3.74201882097404, 40.40622095698234)"
104,"calle Gregorio Sánchez Herráez 14,",16,166,6,17,2291,0,544 - Gregorio Sánchez Herráez 14,0,544,0,23,2024-02-12 13:34:45,-3.63657,40.477248,"(-3.63657, 40.477248)"
105,"Calle Oña s/n,",16,166,11,12,2292,2,551 - Calle Oña s/n,0,551,0,23,2024-02-12 13:34:45,-3.6658565,40.4891872,"(-3.6658565, 40.4891872)"
106,"calle Ana de Austria s/n,",16,166,14,13,2293,2,552 - calle Ana de Austria s/n,0,552,0,27,2024-02-12 13:34:45,-3.6531502,40.4994394,"(-3.6531502, 40.4994394)"
107,"Avd Fuerzas Armadas (Cercanias Valdebebas),",21,214,11,13,2294,2,542 - Av. Fuerzas Armadas (Cer. Valdebebas),0,542,0,24,2024-02-12 13:34:45,-3.6157178,40.4819961,"(-3.6157178, 40.4819961)"
108,"Paseo de Puerta del Angel, 10 ( metro Lago),",09,091,19,0,2297,1,"320 - Paseo de Puerta del Angel, 10 (M. Lago)",0,320,0,19,2024-02-12 13:34:45,-3.7345247,40.4167792,"(-3.7345247, 40.4167792)"
109,"Calle Estella, 21,",08,086,7,16,2298,0,"608 - Calle Estella, 21",0,608,0,23,2024-02-12 13:34:45,-3.6743568,40.4968198,"(-3.6743568, 40.4968198)"
110,"Paseo de los Pontones, 45,",02,021,15,8,2299,2,"278 - Paseo de los Pontones, 45",0,278,0,23,2024-02-12 13:34:45,-3.7196,40.4040433,"(-3.7196, 40.4040433)"
111,"Calle Luis de Salazar, 11,",05,052,5,18,2300,0,"289 - Calle Luis de Salazar, 11",0,289,0,23,2024-02-12 13:34:45,-3.6649258,40.4474166,"(-3.6649258, 40.4474166)"
112,"Rafaela Aparicio, 10,",16,166,8,18,2301,2,"547 - Rafaela Aparicio, 10",0,547,0,27,2024-02-12 13:34:45,-3.6312179,40.4792396,"(-3.6312179, 40.4792396)"
113,"Calle Berrocal, 9,",17,173,8,19,2302,0,"402 - Calle Berrocal, 9",0,402,0,27,2024-02-12 13:34:45,-3.67615,40.344115,"(-3.67615, 40.344115)"
114,"Tomas Redondo, 7,",16,166,10,13,2303,2,"543 - Tomas Redondo, 7",0,543,0,23,2024-02-12 13:34:45,-3.62913802,40.47178414,"(-3.62913802, 40.47178414)"
115,"Paseo virgen de puerto, 25,",02,021,6,9,2304,2,"277 - Paseo Virgen del Puerto, 25",0,277,0,15,2024-02-12 13:34:45,-3.721178,40.411622,"(-3.721178, 40.411622)"
116,"Menéndez Pelayo, entrada Florida Park,",03,035,22,1,2306,1,"282 - Menéndez Pelayo, entrada Florida Park",0,282,0,23,2024-02-12 13:34:45,-3.6787796,40.4181327,"(-3.6787796, 40.4181327)"
117,"Calle Mayor , 6,",01,016,1,22,2307,0,"1b - Calle Mayor, 6",0,1,0,23,2024-02-12 13:34:45,-3.7054098,40.416465,"(-3.7054098, 40.416465)"
118,"Avda de la Gran Vía de San Francisco, 9 ,",01,011,10,13,2308,2,"263 - Avda  Gran Vía de San Francisco ,  9",0,263,0,23,2024-02-12 13:34:45,-3.712793282384579,40.40833880815136,"(-3.712793282384579, 40.40833880815136)"
119," Calle Babilonia, 19,",21,215,8,15,2309,2,"559 - Calle Babilonia, 19",0,559,0,23,2024-02-12 13:34:45,-3.5882347,40.4675299,"(-3.5882347, 40.4675299)"
120,"Camino de Ganapanes, 40,",08,083,18,6,2311,1,"581 - Camino de Ganapanes, 40",0,581,0,24,2024-02-12 13:34:45,-3.7163093,40.4764797,"(-3.7163093, 40.4764797)"
121,"Calle San Modesto, 42,",08,086,11,13,2312,2,"598 - Calle San Modesto, 42",0,598,0,24,2024-02-12 13:34:45,-3.6923396,40.4858012,"(-3.6923396, 40.4858012)"
122,"Calle Escalona, 2,",10,104,3,24,2313,0,"341 - Calle Escalona, 2",0,341,0,27,2024-02-12 13:34:45,-3.76182259,40.39834576,"(-3.76182259, 40.39834576)"
123,"Avda del Padre Piquer s/n,",10,104,13,11,2314,2,346 - Avda del Padre Piquer,0,346,0,24,2024-02-12 13:34:45,-3.7664844,40.3907438,"(-3.7664844, 40.3907438)"
124,"Avda de las Aguilas, 27,",10,107,12,12,2315,2,"347 - Avda de las Aguilas, 27",0,347,0,24,2024-02-12 13:34:45,-3.768603,40.383554,"(-3.768603, 40.383554)"
125,"Calle Albelda, 6,",15,156,4,20,2316,0,"528 - Albelda, 6",0,528,0,24,2024-02-12 13:34:45,-3.6573666,40.4494225,"(-3.6573666, 40.4494225)"
126,"Paseo de la Venta, 1,",09,091,12,15,2317,2,"312 -  Paseo de la Venta, 1",0,312,0,27,2024-02-12 13:34:45,-3.7528559,40.4077495,"(-3.7528559, 40.4077495)"
127,"Carretera del ZOO, s/n (M. Casa Campo),",09,091,24,2,2318,1,"321 - Carretera del ZOO, s/n (M. Casa Campo)",0,321,0,27,2024-02-12 13:34:45,-3.761051,40.40316,"(-3.761051, 40.40316)"
128,"Calle de las Rosas de Aravaca, s/n,",09,097,11,12,2319,2,"310 - Calle de las Rosas de Aravaca, s/n",0,310,0,22,2024-02-12 13:34:45,-3.7845536,40.4490509,"(-3.7845536, 40.4490509)"
129,"311 - Calle del Profesor Aranguren, 1,",09,093,14,13,2320,2,"311 - Calle del Profesor Aranguren, 1",0,311,0,26,2024-02-12 13:34:45,-3.733574,40.448553,"(-3.733574, 40.448553)"
130,"Calle Felipe IV, 3,",03,035,18,5,2321,1,"283 - Calle Felipe IV, 3",0,283,0,23,2024-02-12 13:34:45,-3.6919057,40.4152082,"(-3.6919057, 40.4152082)"
131,"564 - Avda del Partenon, 16,",21,215,11,12,2322,2,"564 - Avda del Partenon, 16",0,564,0,23,2024-02-12 13:34:45,-3.613867,40.463861,"(-3.613867, 40.463861)"
132,"Calle Caños de San Pedro, 12,",19,191,12,11,2323,2,"468 - Calle Caños de San Pedro, 12",0,468,0,23,2024-02-12 13:34:45,-3.601920499999999,40.4029976,"(-3.601920499999999, 40.4029976)"
133,"465 - Cordel de Pavones, 48,",19,192,10,14,2324,2,"465 - Cordel de Pavones, 48",0,465,0,24,2024-02-12 13:34:45,-3.619645,40.397375,"(-3.619645, 40.397375)"
134,"414 -  Calle de Santa Petronila, 7,",17,174,6,18,2325,0,"414 -  Calle de Santa Petronila, 7",0,414,0,24,2024-02-12 13:34:45,-3.692163,40.350985,"(-3.692163, 40.350985)"
135,"Calle de la Oca, 20,",11,113,8,16,2326,2,"380. - 380 -  Calle de la Oca, 20",0,380.,0,24,2024-02-12 13:34:45,-3.7335492,40.3894333,"(-3.7335492, 40.3894333)"
136,"411 - Calle Domingo Párraga,",17,171,8,15,2327,2,411 - Calle Domingo Párraga,0,411,0,23,2024-02-12 13:34:45,-3.7118183,40.3417533,"(-3.7118183, 40.3417533)"
137,"Jacinto Verdaguer, 12,",11,112,6,18,2328,0,354 - Jacinto Verdaguer,0,354,0,24,2024-02-12 13:34:45,-3.7160526116262793,40.39593854704345,"(-3.7160526116262793, 40.39593854704345)"
138,"318 - Calle Santa Pola, 22,",09,091,17,6,2329,1,"318 - Calle Santa Pola, 22",0,318,0,23,2024-02-12 13:34:45,-3.7370276473602226,40.43205131007265,"(-3.7370276473602226, 40.43205131007265)"
139,"549 - Avd. Francisco PI y Maragall, 33,",16,166,2,17,2330,0,"549 - Avd. Francisco PI y Maragall, 33",0,549,0,19,2024-02-12 13:34:45,-3.6503544,40.4866354,"(-3.6503544, 40.4866354)"
140,"279 - Paseo de los Melancólicos, 1,",02,021,10,13,2331,2,"279 - Paseo de los Melancólicos, 1",0,279,0,23,2024-02-12 13:34:45,-3.7184816,40.4104448,"(-3.7184816, 40.4104448)"
141,"Calle Carmen de Burgos, 4,",17,174,10,13,2332,2,"407 - Calle Carmen de Burgos, 4",0,407,0,23,2024-02-12 13:34:45,-3.6847883,40.3575459,"(-3.6847883, 40.3575459)"
142,"Avenida de Nazaret nº 7,",03,033,11,12,1475,2,73 - Plaza de los Astros,0,73,0,23,2024-02-12 13:34:45,-3.6687,40.4115,"(-3.6687, 40.4115)"
143,"Avenida de Menéndez Pelayo nº 69,",03,035,22,5,1476,1,74 - Puerta del Pacífico ,0,74,0,27,2024-02-12 13:34:45,-3.676588763788984,40.41206290978386,"(-3.676588763788984, 40.41206290978386)"
144,"Avenida de Menéndez Pelayo con calle Poeta Esteban Villegas,",03,035,11,15,1477,2,75 - Menéndez Pelayo,0,75,0,27,2024-02-12 13:34:45,-3.6784749,40.4082717,"(-3.6784749, 40.4082717)"
145,"Avenida del Mediterráneo nº 19,",03,036,5,19,1478,0,76 - Puerta de Mariano de Cavia,0,76,0,24,2024-02-12 13:34:45,-3.675102,40.407271,"(-3.675102, 40.407271)"
146,"Plaza del Conde de Casal nº 8,",03,031,11,7,1479,2,77 - Conde de Casal,0,77,0,18,2024-02-12 13:34:45,-3.6707132,40.4064784,"(-3.6707132, 40.4064784)"
147,"Calle Cerro de la Plata nº 2,",03,032,7,16,1480,0,78 - Pedro Bosch,0,78,0,23,2024-02-12 13:34:45,-3.6745240600494444,40.40063747422422,"(-3.6745240600494444, 40.40063747422422)"
148,"Avenida de Menéndez Pelayo nº 38,",03,031,7,20,1481,0,79 - Puerta de Granada,0,79,0,27,2024-02-12 13:34:45,-3.6804398243230696,40.405110193977585,"(-3.6804398243230696, 40.405110193977585)"
149,"Cuesta de Claudio Moyano,",03,035,4,20,1484,0,81 - Cuesta de Moyano,0,81,0,24,2024-02-12 13:34:45,-3.691833220071059,40.40934261188139,"(-3.691833220071059, 40.40934261188139)"
150,"Calle Doctor Esquerdo nº 161,",03,033,11,12,1485,2,82 - Niño Jesús,0,82,0,23,2024-02-12 13:34:45,-3.6697526,40.4084556,"(-3.6697526, 40.4084556)"
151,"Calle Pío Baroja nº 10,",03,036,21,2,1486,1,83 - Pío Baroja,0,83,0,23,2024-02-12 13:34:45,-3.6744795,40.4132995,"(-3.6744795, 40.4132995)"
152,"Calle Doctor Esquerdo nº 191,",03,032,7,16,1487,0,84 - Valderribas,0,84,0,23,2024-02-12 13:34:45,-3.672481575393678,40.40357156992851,"(-3.672481575393678, 40.40357156992851)"
153,"Avenida de Menéndez Pelayo, 9,",03,035,18,9,1488,2,85 - Puerta de Madrid,0,85,0,27,2024-02-12 13:34:45,-3.679891,40.4213143,"(-3.679891, 40.4213143)"
154,"Plaza Cibeles,",01,013,12,12,1489,2,86 - Cibeles,0,86,0,24,2024-02-12 13:34:45,-3.6933498,40.4186516,"(-3.6933498, 40.4186516)"
155,"Calle Ayala nº 44,",04,041,18,5,1490,1,87 - Ayala,0,87,0,23,2024-02-12 13:34:45,-3.6832566,40.427736,"(-3.6832566, 40.427736)"
156,"Calle Velázquez nº 75,",04,046,16,7,1491,2,88 - Embajada de Italia,0,88,0,23,2024-02-12 13:34:45,-3.6838303,40.4313576,"(-3.6838303, 40.4313576)"
157,"Calle Ayala nº 102,",04,042,5,18,1492,0,89 - Conde Peñalver,0,89,0,23,2024-02-12 13:34:45,-3.6752024,40.4272582,"(-3.6752024, 40.4272582)"
158,"Calle Goya nº 18,",04,041,25,2,1493,1,90 - Goya 18,0,90,0,27,2024-02-12 13:34:45,-3.6838416,40.4251493,"(-3.6838416, 40.4251493)"
159,"Calle Hermosilla nº 70,",04,042,15,8,1494,2,91 - Hermosilla,0,91,0,23,2024-02-12 13:34:45,-3.6786285,40.426049,"(-3.6786285, 40.426049)"
160,"Calle Claudio Coello nº 45,",04,041,13,10,1495,2,92 - Claudio Coello,0,92,0,23,2024-02-12 13:34:45,-3.6865463,40.4262945,"(-3.6865463, 40.4262945)"
161,"Calle Goya nº 1,",04,041,17,6,1496,1,93 - Plaza de Colón,0,93,0,23,2024-02-12 13:34:45,-3.6893361690338167,40.42575853342561,"(-3.6893361690338167, 40.42575853342561)"
162,"Paseo de Recoletos nº 20,",04,041,20,3,1497,1,94 - Biblioteca Nacional,0,94,0,23,2024-02-12 13:34:45,-3.690756,40.4232153,"(-3.690756, 40.4232153)"
163,"Calle Claudio Coello nº 19,",04,041,15,8,1498,2,95 - Villanueva,0,95,0,23,2024-02-12 13:34:45,-3.6869293,40.4225428,"(-3.6869293, 40.4225428)"
164,"Calle Alcalá nº 111,",04,041,18,9,1499,2,96 - Castelló,0,96,0,27,2024-02-12 13:34:45,-3.682204798770403,40.42201515498424,"(-3.682204798770403, 40.42201515498424)"
165,"Avenida de Menéndez Pelayo nº 3,",04,042,21,6,1500,1,97 - Alcalá,0,97,0,27,2024-02-12 13:34:45,-3.6802556,40.4225364,"(-3.6802556, 40.4225364)"
166,"Plaza de Felipe II,",04,042,19,5,1501,1,98 - Plaza de Felipe II,0,98,0,24,2024-02-12 13:34:45,-3.6757676,40.4241325,"(-3.6757676, 40.4241325)"
167,"Calle Alcántara nº 2,",04,042,8,15,1502,2,99 - Alcántara,0,99,0,23,2024-02-12 13:34:45,-3.6740178,40.4260391,"(-3.6740178, 40.4260391)"
168,"Calle Goya nº 99,",04,042,14,13,1503,2,100 - Palacio de Deportes,0,100,0,27,2024-02-12 13:34:45,-3.67384,40.42478,"(-3.67384, 40.42478)"
169,"Calle Jorge Juan nº 131,",04,042,19,5,1504,1,101 - Jorge Juan,0,101,0,24,2024-02-12 13:34:45,-3.6696804,40.4230771,"(-3.6696804, 40.4230771)"
170,"Calle Alcalá nº 95,",04,041,16,7,1505,2,102 - Velázquez,0,102,0,23,2024-02-12 13:34:45,-3.6842317,40.4211845,"(-3.6842317, 40.4211845)"
171,"Calle José Ortega y Gasset nº 4,",04,046,19,4,1506,1,103 - Ortega y Gasset,0,103,0,23,2024-02-12 13:34:45,-3.686744,40.43053,"(-3.686744, 40.43053)"
172,"Paseo de la Castellana nº 4,",04,041,22,1,1507,1,104 - Castellana,0,104,0,22,2024-02-12 13:34:45,-3.68958,40.42677,"(-3.68958, 40.42677)"
173,"Calle Serrano nº 54,",04,041,19,4,1508,1,105 - Serrano 54,0,105,0,23,2024-02-12 13:34:45,-3.6875418,40.4270832,"(-3.6875418, 40.4270832)"
174,"Calle Serrano nº 32,",04,041,19,0,1510,1,106b - Colón B,0,106b,0,19,2024-02-12 13:34:45,-3.68789,40.424776,"(-3.68789, 40.424776)"
175,"Calle Serrano nº 8,",04,041,23,0,1511,1,107 - Columela,0,107,0,23,2024-02-12 13:34:45,-3.6883841104507464,40.42156087297841,"(-3.6883841104507464, 40.42156087297841)"
176,"Calle Mártires Concepcionistas nº 2,",04,042,8,19,1512,0,108 - Mártires Concepcionistas,0,108,0,27,2024-02-12 13:34:45,-3.670652,40.427402,"(-3.670652, 40.427402)"
177,"Calle José Ortega y Gasset nº 30,",04,046,18,5,1513,1,109 - Marqués de Salamanca,0,109,0,23,2024-02-12 13:34:45,-3.6814521,40.4301245,"(-3.6814521, 40.4301245)"
178,"Paseo de Moret nº 2,",09,091,0,23,1514,0,110 - Moncloa,0,110,0,23,2024-02-12 13:34:45,-3.7201021,40.434745,"(-3.7201021, 40.434745)"
179,"Calle Arcipreste de Hita nº 10,",07,071,18,5,1515,1,111a - Arcipreste de Hita A,0,111a,0,23,2024-02-12 13:34:45,-3.7175248,40.4336027,"(-3.7175248, 40.4336027)"
180,"Calle Arcipreste de Hita nº 12,",07,071,17,6,1516,1,111b - Arcipreste de Hita B,0,111b,0,23,2024-02-12 13:34:45,-3.7177434,40.433913,"(-3.7177434, 40.433913)"
181,"Paseo de Moret nº 11,",09,092,2,21,1517,0,112 - Paseo de Moret,0,112,0,23,2024-02-12 13:34:45,-3.724736,40.4326901,"(-3.724736, 40.4326901)"
182,"Paseo del Pintor Rosales frente al nº 38,",09,091,18,6,1518,1,113 - Pintor Rosales,0,113,0,24,2024-02-12 13:34:45,-3.7207263,40.427538,"(-3.7207263, 40.427538)"
183,"Calle Quintana nº 13,",09,092,16,7,1519,2,114 - Quintana,0,114,0,23,2024-02-12 13:34:45,-3.7174631,40.4278379,"(-3.7174631, 40.4278379)"
184,"Calle Evaristo San Miguel nº 2,",09,092,18,5,1520,1,115 - Ferraz,0,115,0,23,2024-02-12 13:34:45,-3.7170515055225373,40.42531476841791,"(-3.7170515055225373, 40.42531476841791)"
185,"Plaza de España,",09,092,3,14,1521,0,116A - Plaza de España,0,116A,0,18,2024-02-12 13:34:45,-3.713043,40.423679,"(-3.713043, 40.423679)"
186,"Calle de los Reyes,",01,015,7,11,1522,2,116B - Calle Reyes 10,0,116B,0,18,2024-02-12 13:34:45,-3.71046,40.423684,"(-3.71046, 40.423684)"
187,"Calle Altamirano nº 24,",09,092,12,11,1523,2,117 - Altamirano,0,117,0,23,2024-02-12 13:34:45,-3.7188898,40.4309797,"(-3.7188898, 40.4309797)"
188,"Calle Juan Martín el Empecinado nº 16,",02,026,9,14,1524,2,118 - Juan Martín,0,118,0,23,2024-02-12 13:34:45,-3.6882407,40.400781,"(-3.6882407, 40.400781)"
189,"Calle Méndez Álvaro nº 11,",02,027,7,16,1525,0,119 - Méndez Álvaro,0,119,0,23,2024-02-12 13:34:45,-3.6862653,40.4012905,"(-3.6862653, 40.4012905)"
190,"Calle Palos de la Frontera nº 27,",02,026,17,10,1526,2,120 - Palos de la Frontera,0,120,0,27,2024-02-12 13:34:45,-3.6948251018524214,40.403090451430614,"(-3.6948251018524214, 40.403090451430614)"
191,"Paseo de Santa María de la Cabeza nº 58,",02,026,12,15,1527,2,121 - Santa María de la Cabeza,0,121,0,27,2024-02-12 13:34:45,-3.6986027,40.4017487,"(-3.6986027, 40.4017487)"
192,"Calle Santa Engracia nº 14,",07,074,14,9,1528,2,122 - Santa Engracia 14,0,122,0,23,2024-02-12 13:34:45,-3.6963659,40.4295362,"(-3.6963659, 40.4295362)"
193,"Calle Guzmán el Bueno nº 1,",07,071,16,11,1529,2,123 - Guzmán el Bueno,0,123,0,27,2024-02-12 13:34:45,-3.7133412,40.4306458,"(-3.7133412, 40.4306458)"
194,"Calle Manuel Silvela nº 20,",07,073,25,2,1530,1,124 - Manuel Silvela,0,124,0,27,2024-02-12 13:34:45,-3.6993695,40.430969,"(-3.6993695, 40.430969)"
195,"Calle Fernández de la Hoz nº 29,",07,074,24,3,1531,1,125 - General Martínez Campos ,0,125,0,27,2024-02-12 13:34:45,-3.6948,40.4353,"(-3.6948, 40.4353)"
196,"Calle del General Álvarez de Castro nº 1,",07,073,11,16,1532,2,126 - General Álvarez de Castro,0,126,0,27,2024-02-12 13:34:45,-3.7018044,40.4345976,"(-3.7018044, 40.4345976)"
197,"Calle Fernando el Católico nº 19,",07,072,7,20,1533,0,127 - Fernando el Católico,0,127,0,27,2024-02-12 13:34:45,-3.708439,40.4338516,"(-3.708439, 40.4338516)"
198,"Calle Cea Bermúdez nº 59,",07,076,20,7,1534,1,128 - Cea Bermúdez,0,128,0,27,2024-02-12 13:34:45,-3.7154,40.4392,"(-3.7154, 40.4392)"
199,"Calle José Abascal nº 33,",07,075,8,19,1535,0,129 - José Abascal,0,129,0,27,2024-02-12 13:34:45,-3.6982353,40.4383865,"(-3.6982353, 40.4383865)"
200,"Calle Santa Engracia nº 127,",07,075,15,8,1536,2,130 - Santa Engracia 127,0,130,0,23,2024-02-12 13:34:45,-3.70164,40.44156,"(-3.70164, 40.44156)"
201,"Calle Bravo Murillo nº 44,",07,075,18,5,1537,1,131 - Bravo Murillo 44,0,131,0,23,2024-02-12 13:34:45,-3.70403123,40.4417884,"(-3.70403123, 40.4417884)"
202,"Calle Santa Engracia nº 168,",07,075,3,24,1538,0,132 - Glorieta de los Cuatro Caminos,0,132,0,27,2024-02-12 13:34:45,-3.703605250412747,40.446377501314885,"(-3.703605250412747, 40.446377501314885)"
203,"Calle Raimundo Fernández Villaverde nº 33,",06,062,5,19,1539,0,133 - Raimundo Fernández,0,133,0,24,2024-02-12 13:34:45,-3.7001669,40.447125,"(-3.7001669, 40.447125)"
204,"Calle María de Guzmán nº 58,",07,075,4,19,1540,0,134 - Agustín de Betancourt,0,134,0,23,2024-02-12 13:34:45,-3.6955687,40.4441818,"(-3.6955687, 40.4441818)"
205,"Plaza de San Juan de la Cruz nº 11,",07,075,13,10,1541,2,135 - Plaza de San Juan de la Cruz,0,135,0,23,2024-02-12 13:34:45,-3.692734,40.441481,"(-3.692734, 40.441481)"
206,"Paseo de la Castellana nº 106,",05,051,21,2,1542,1,136 - Castellana 106,0,136,0,23,2024-02-12 13:34:45,-3.690769,40.4451244,"(-3.690769, 40.4451244)"
207,"Plaza de la República Argentina nº 6,",05,051,10,14,1543,2,137 - Plaza de la República Argentina,0,137,0,24,2024-02-12 13:34:45,-3.6853377,40.4454477,"(-3.6853377, 40.4454477)"
208,"Paseo de la Castellana esquina calle Raimundo Fernández Villaverde,",07,075,18,4,1544,1,138 - Paseo de la Castellana con Raimundo Fer,0,138,0,23,2024-02-12 13:34:45,-3.6914063,40.4457414,"(-3.6914063, 40.4457414)"
209,"Calle José Gutiérrez Abascal nº 2,",05,051,14,10,1545,2,"139 - Calle José Gutiérrez Abascal,2",0,139,0,24,2024-02-12 13:34:45,-3.690419307270818,40.43939562033124,"(-3.690419307270818, 40.43939562033124)"
210,"Calle Velázquez nº 130,",05,051,26,0,1546,1,140 - Velázquez 130,0,140,0,27,2024-02-12 13:34:45,-3.6830583,40.4387566,"(-3.6830583, 40.4387566)"
211,"Paseo de la Castellana nº 43,",07,074,9,3,1547,1,141 - Paseo de la Castellana - Glorieta de Em,0,141,0,12,2024-02-12 13:34:45,-3.6893917,40.4354047,"(-3.6893917, 40.4354047)"
212,"Paseo de la Castellana nº 42,",04,046,22,1,1548,1,142 - Castellana 42,0,142,0,23,2024-02-12 13:34:45,-3.6879154,40.4334087,"(-3.6879154, 40.4334087)"
213,"Calle General Pardiñas nº 56,",04,045,13,10,1549,2,186 - General Pardiñas,0,186,0,23,2024-02-12 13:34:45,-3.6783016,40.4289804,"(-3.6783016, 40.4289804)"
214,"Calle Juan Bravo nº 50,",04,045,16,11,1550,2,144 - Juan Bravo 50,0,144,0,27,2024-02-12 13:34:45,-3.675556,40.4324081,"(-3.675556, 40.4324081)"
215,"Calle Ortega y Gasset nº 87,",04,045,22,1,1551,1,145 - Ortega y Gasset 87,0,145,0,23,2024-02-12 13:34:45,-3.6712823,40.429887,"(-3.6712823, 40.429887)"
216,"Calle María Francisca nº 3,",05,051,12,7,1552,2,146 - María Francisca 1,0,146,0,19,2024-02-12 13:34:45,-3.6788499,40.4442541,"(-3.6788499, 40.4442541)"
217,"Avenida del Doctor Arce nº 45,",05,051,19,4,1553,1,147 - Doctor Arce 45,0,147,0,23,2024-02-12 13:34:45,-3.6794,40.4484,"(-3.6794, 40.4484)"
218,"Calle Serrano nº 210,",05,051,7,16,1554,0,148 - Serrano 210,0,148,0,23,2024-02-12 13:34:45,-3.6813971,40.451117,"(-3.6813971, 40.451117)"
219,"Paseo de la Habana nº 42,",05,051,2,21,1555,0,149 - Paseo de la Habana 42,0,149,0,23,2024-02-12 13:34:45,-3.6879303,40.4498515,"(-3.6879303, 40.4498515)"
220,"Calle Orense nº 12,",06,062,21,6,1557,1,151 - Orense 12,0,151,0,27,2024-02-12 13:34:45,-3.6953592650123657,40.44881224951987,"(-3.6953592650123657, 40.44881224951987)"
221,"Avenida del General Perón frente al nº 4,",06,062,1,22,1558,0,152 - General Perón 1,0,152,0,23,2024-02-12 13:34:45,-3.6989,40.4525,"(-3.6989, 40.4525)"
222,"Avenida del General Perón frente al nº 36,",06,062,12,11,1559,2,153 - General Perón con Poeta Joan Maragall,0,153,0,23,2024-02-12 13:34:45,-3.6936,40.4523,"(-3.6936, 40.4523)"
223,"Calle Orense nº 36,",06,062,13,11,1560,2,154 - Orense 36,0,154,0,24,2024-02-12 13:34:45,-3.6946218,40.4548456,"(-3.6946218, 40.4548456)"
224,"Calle San Germán nº 57,",06,062,6,17,1561,0,155 - San Germán 57,0,155,0,23,2024-02-12 13:34:45,-3.700930190178302,40.4573342300643,"(-3.700930190178302, 40.4573342300643)"
225,"Calle Sor Ángela de la Cruz nº 2,",06,063,24,0,1562,1,156 - Sor Ángela de la Cruz,0,156,0,24,2024-02-12 13:34:45,-3.691533,40.4592351,"(-3.691533, 40.4592351)"
226,"Avenida de Alberto Alcocer nº 22,",05,054,13,10,1564,2,158 - Alberto Alcocer,0,158,0,23,2024-02-12 13:34:45,-3.684625,40.45869,"(-3.684625, 40.45869)"
227,"Paseo de la Habana nº 63,",05,054,9,14,1565,2,159 - Paseo de la Habana 63,0,159,0,23,2024-02-12 13:34:45,-3.6835926,40.4543852,"(-3.6835926, 40.4543852)"
228,"Calle Colombia nº 7,",05,054,7,17,1566,0,160 - Colombia,0,160,0,24,2024-02-12 13:34:45,-3.6763439,40.4572466,"(-3.6763439, 40.4572466)"
229,"Paseo de la Florida nº 8,",09,091,20,7,1567,1,161 - Paseo de la Florida,0,161,0,27,2024-02-12 13:34:45,-3.7220993214090403,40.422192474165534,"(-3.7220993214090403, 40.422192474165534)"
230,"Paseo de los Olmos nº 28,",02,022,13,10,1568,2,162 - Metro Pirámides,0,162,0,22,2024-02-12 13:34:45,-3.7105765,40.4034968,"(-3.7105765, 40.4034968)"
231,"Paseo de la Esperanza nº 2,",02,022,11,8,1569,2,163 - Paseo de la Esperanza,0,163,0,19,2024-02-12 13:34:45,-3.706445,40.4037586,"(-3.706445, 40.4037586)"
232,"Paseo de las Delicias nº 94,",02,025,14,13,1570,2,164 - Paseo de las Delicias,0,164,0,27,2024-02-12 13:34:45,-3.69461,40.39723,"(-3.69461, 40.39723)"
233,"Paseo de la Chopera nº 14,",02,023,13,30,1571,0,165 - Entrada Matadero,0,165,0,43,2024-02-12 13:34:45,-3.697596,40.392888,"(-3.697596, 40.392888)"
234,"Calle Segovia nº 26,",01,011,10,17,1572,2,166 - Segovia 26,0,166,0,27,2024-02-12 13:34:45,-3.7133770233135133,40.41390473235381,"(-3.7133770233135133, 40.41390473235381)"
235,"Calle Segovia nº 45,",02,021,19,8,1573,1,167 - Segovia 45,0,167,0,27,2024-02-12 13:34:45,-3.71748917032373,40.41374770742206,"(-3.71748917032373, 40.41374770742206)"
236,"Paseo Santa María de la Cabeza nº 29,",02,026,14,9,1574,2,168 - Batalla del Salado,0,168,0,23,2024-02-12 13:34:45,-3.6959,40.4046,"(-3.6959, 40.4046)"
237,"Calle Toledo nº 181,",02,022,6,18,1575,0,169 - Pirámides,0,169,0,24,2024-02-12 13:34:45,-3.713823,40.401589,"(-3.713823, 40.401589)"
238,"Paseo de la Esperanza nº 21,",02,022,22,2,1576,1,170 - Paseo de la Esperanza,0,170,0,24,2024-02-12 13:34:45,-3.7043956,40.4010554,"(-3.7043956, 40.4010554)"
239,"Calle Embajadores nº 97,",02,025,17,10,1577,2,171 - Embajadores-Cáceres,0,171,0,27,2024-02-12 13:34:45,-3.6984023,40.3997013,"(-3.6984023, 40.3997013)"
240,"Calle Bustamante nº 1,",02,025,5,17,1578,0,172 - Delicias,0,172,0,23,2024-02-12 13:34:45,-3.6934926,40.4008279,"(-3.6934926, 40.4008279)"
241,"Paseo de la Esperanza nº 59,",02,022,9,15,1579,2,173 - Puente Praga,0,173,0,24,2024-02-12 13:34:45,-3.7024839,40.3983467,"(-3.7024839, 40.3983467)"
242,"Paseo de Yeserías nº 45,",02,022,2,25,1580,0,174 - Madrid Río-Yeserías,0,174,0,27,2024-02-12 13:34:45,-3.7065258846557603,40.39742958306358,"(-3.7065258846557603, 40.39742958306358)"
243,"Calle Jaime el Conquistador nº 30,",02,023,4,15,1581,0,175 - Jaime el Conquistador,0,175,0,19,2024-02-12 13:34:45,-3.69834452,40.3962264,"(-3.69834452, 40.3962264)"
244,"Calle Bolívar nº 3,",02,025,1,22,1583,0,177 - Legazpi,0,177,0,23,2024-02-12 13:34:45,-3.6941876374343896,40.391447085678806,"(-3.6941876374343896, 40.391447085678806)"
245,"Calle León Gil de Palacio nº 3,",03,031,8,16,1584,2,178 - Junta Municipal Retiro,0,178,0,24,2024-02-12 13:34:45,-3.6788343,40.4029202,"(-3.6788343, 40.4029202)"
246,"Avenida de la Albufera nº 6,",13,132,13,11,1585,2,179 - Puente de Vallecas,0,179,0,24,2024-02-12 13:34:45,-3.6692724,40.3979273,"(-3.6692724, 40.3979273)"
247,"Calle Retama nº 5,",02,027,11,12,1586,2,180 - Méndez Álvaro,0,180,0,23,2024-02-12 13:34:45,-3.67589,40.3940423,"(-3.67589, 40.3940423)"
248,"Calle Ibiza nº 18,",03,034,22,5,1587,1,181 - Retiro-Ibiza,0,181,0,27,2024-02-12 13:34:45,-3.676443540475469,40.41816932665331,"(-3.676443540475469, 40.41816932665331)"
249,"Calle Alcalde Sáinz de Baranda frente al nº 107,",03,033,15,8,1588,2,182 - Parque Roma,0,182,0,23,2024-02-12 13:34:45,-3.6657777,40.4186666,"(-3.6657777, 40.4186666)"
250,"Calle Hermosilla nº 135,",04,042,8,15,1589,2,183 - Doctor Esquerdo-Hermosilla,0,183,0,23,2024-02-12 13:34:45,-3.669339,40.425635,"(-3.669339, 40.425635)"
251,"Paseo Marqués de Zafra nº 24,",04,043,8,16,1590,2,184 - Marqués de Zafra,0,184,0,24,2024-02-12 13:34:45,-3.6653055,40.426,"(-3.6653055, 40.426)"
252,"Calle Sancho Dávila esquina Paseo Marqués de Zafra,",04,043,12,12,1591,2,185 - Quinta Fuente del Berro,0,185,0,24,2024-02-12 13:34:45,-3.6615277,40.4250833,"(-3.6615277, 40.4250833)"
253,"Calle Diego de Leon, 52,",04,045,19,4,1592,1,143 - Diego de Leon 52,0,143,0,23,2024-02-12 13:34:45,-3.6780802,40.434676,"(-3.6780802, 40.434676)"
254,"Calle Alejandro González nº 1,",04,043,14,9,1593,2,187 - Alcalá-Ventas,0,187,0,23,2024-02-12 13:34:45,-3.6638249,40.4301326,"(-3.6638249, 40.4301326)"
255,"Avenida de Daroca nº 2,",15,151,18,9,1594,2,188 - Puente de Ventas,0,188,0,27,2024-02-12 13:34:45,-3.6590286,40.4312562,"(-3.6590286, 40.4312562)"
256,"Calle Virgen de la Alegría nº 18,",15,154,8,14,1595,2,189 - Avenida Donostiarra,0,189,0,23,2024-02-12 13:34:45,-3.6554918,40.4351256,"(-3.6554918, 40.4351256)"
257,"Calle Velázquez nº 91,",04,046,10,13,1596,2,190 - Velázquez-Diego de León,0,190,0,23,2024-02-12 13:34:45,-3.6833753,40.4343053,"(-3.6833753, 40.4343053)"
258,"Calle Alonso Heredia nº 1,",04,044,3,16,1597,0,191 - Diego de león,0,191,0,19,2024-02-12 13:34:45,-3.6740777840614403,40.434569387142616,"(-3.6740777840614403, 40.434569387142616)"
259,"Avenida de los Toreros nº 3,",04,044,18,9,1598,2,192 - Avenida de los Toreros,0,192,0,27,2024-02-12 13:34:45,-3.6714677183853106,40.431826464468664,"(-3.6714677183853106, 40.431826464468664)"
260,"Avenida de los Toreros nº 49,",04,044,12,15,1599,2,193 - Ventas,0,193,0,27,2024-02-12 13:34:45,-3.6655555,40.4324722,"(-3.6655555, 40.4324722)"
261,"Calle Francisco Silvela nº 86,",04,044,17,7,1600,1,194 - Avenida de América 2,0,194,0,24,2024-02-12 13:34:45,-3.6771535,40.4372638,"(-3.6771535, 40.4372638)"
262,"Calle Padre Indalecio Hernández nº 1,",05,052,5,19,1601,0,195 - Avenida de América 1,0,195,0,24,2024-02-12 13:34:45,-3.6754444,40.4392222,"(-3.6754444, 40.4392222)"
263,"Calle Suero de Quiñones nº 3,",05,053,9,18,1602,2,196 - Prosperidad,0,196,0,27,2024-02-12 13:34:45,-3.6752218,40.4442237,"(-3.6752218, 40.4442237)"
264,"Avenida de Concha Espina nº 34,",05,051,11,11,1603,2,197 - Parque Berlín,0,197,0,23,2024-02-12 13:34:45,-3.677916,40.4516059,"(-3.677916, 40.4516059)"
265,"Castellana 33,",07,074,22,1,1604,1,198 - Castellana 33,0,198,0,23,2024-02-12 13:34:45,-3.6891,40.432,"(-3.6891, 40.432)"
266,"Calle Fernando el Católico nº 61,",07,071,11,16,1605,2,199 - Fernando el Católico,0,199,0,27,2024-02-12 13:34:45,-3.7149166,40.4343611,"(-3.7149166, 40.4343611)"
267,"Glorieta de Quevedo nº 5,",07,072,12,12,1606,2,200 - Quevedo,0,200,0,24,2024-02-12 13:34:45,-3.7045789811585417,40.43375360585919,"(-3.7045789811585417, 40.43375360585919)"
268,"Calle José Abascal frente al nº 2,",07,075,4,19,1607,0,201 - Canal,0,201,0,23,2024-02-12 13:34:45,-3.7038333,40.4386944,"(-3.7038333, 40.4386944)"
269,"Calle Santander esquina con Avenida de Filipinas,",07,076,14,12,1608,2,202 - Parque Santander,0,202,0,27,2024-02-12 13:34:45,-3.7083,40.4413,"(-3.7083, 40.4413)"
270,"Calle General Ampudia nº 2,",07,076,13,11,1609,2,203 - San Francisco de Sales,0,203,0,24,2024-02-12 13:34:45,-3.7144722,40.44175,"(-3.7144722, 40.44175)"
271,"Calle Doctor Santero nº 1,",06,061,9,14,1610,2,204 - Cuatro Caminos 2,0,204,0,23,2024-02-12 13:34:45,-3.7040397,40.4476488,"(-3.7040397, 40.4476488)"
272,"Calle Navarra nº 1,",06,061,6,17,1611,0,205 - Estrecho,0,205,0,23,2024-02-12 13:34:45,-3.7032777,40.4535,"(-3.7032777, 40.4535)"
273,"Calle Marqués de Viana nº 3,",06,066,3,20,1612,0,206 - Metro Tetuán,0,206,0,23,2024-02-12 13:34:45,-3.698915521426396,40.4607466894426,"(-3.698915521426396, 40.4607466894426)"
274,"Calle Azucenas nº 1,",06,065,1,18,1613,0,207 - Remonta,0,207,0,19,2024-02-12 13:34:45,-3.6973352,40.4630443,"(-3.6973352, 40.4630443)"
275,"Paseo de la Castellana nº 216,",05,056,15,3,1614,1,208 - Plaza de Castilla,0,208,0,18,2024-02-12 13:34:45,-3.6890611,40.4662811,"(-3.6890611, 40.4662811)"
276,"Paseo Castellana (Fundación Canal),",05,055,20,3,1615,1,209 - Plaza de Castilla 2,0,209,0,23,2024-02-12 13:34:45,-3.6887,40.4657,"(-3.6887, 40.4657)"
277,"Calle Tres Cruces nº 7,",01,016,6,21,1616,0,210 - Tres Cruces,0,210,0,27,2024-02-12 13:34:45,-3.7027164,40.4196518,"(-3.7027164, 40.4196518)"
278,"Calle Desengaño nº 1,",01,015,12,11,1617,2,211 - Desengaño,0,211,0,23,2024-02-12 13:34:45,-3.70239,40.42059,"(-3.70239, 40.42059)"
279,"Glorieta Marqués de Vadillo nº 9,",11,113,15,12,1618,2,212 - Marqués de Vadillo,0,212,0,27,2024-02-12 13:34:45,-3.716591,40.398247,"(-3.716591, 40.398247)"
280,"Calle Antonio López nº 129,",12,125,5,18,1619,0,213 - Glorieta de Cádiz,0,213,0,23,2024-02-12 13:34:45,-3.7002247,40.3889918,"(-3.7002247, 40.3889918)"
281,"Calle Condesa de Venadito nº 2,",15,155,20,4,1620,1,214 - Condesa de Venadito,0,214,0,24,2024-02-12 13:34:45,-3.6569031,40.4434316,"(-3.6569031, 40.4434316)"
282,"Calle Gutierre de Cetina nº 77,",15,152,9,14,1621,2,215 - Gutierre de Cetina,0,215,0,23,2024-02-12 13:34:45,-3.6408093,40.429588,"(-3.6408093, 40.429588)"
283,"Plaza Puerta del Ángel nº 4,",10,102,8,19,1622,0,216 - Puerta del Ángel,0,216,0,27,2024-02-12 13:34:45,-3.72897,40.4141,"(-3.72897, 40.4141)"
284,"Calle Pedro Rico nº 6,",08,085,14,8,1623,2,217 - Pedro Rico,0,217,0,23,2024-02-12 13:34:45,-3.6890758,40.480884,"(-3.6890758, 40.480884)"
285,"Calle Camino de los Vinateros nº 28,",14,144,13,10,1624,2,218 - Camino Vinateros,0,218,0,23,2024-02-12 13:34:45,-3.6572967,40.4105478,"(-3.6572967, 40.4105478)"
286,"Calle Camino de los Vinateros nº 108,",14,143,7,11,1625,2,219 - Marroquina,0,219,0,18,2024-02-12 13:34:45,-3.6467338,40.4083593,"(-3.6467338, 40.4083593)"
287,"Calle Arroyo de las Pilillas nº 6,",14,144,19,5,1626,1,220 - Plaza del Encuentro,0,220,0,24,2024-02-12 13:34:45,-3.651384,40.406156,"(-3.651384, 40.406156)"
288,"Calle Hacienda de Pavones nº 342,",14,141,22,1,1627,1,221 - Pavones,0,221,0,23,2024-02-12 13:34:45,-3.634744478732248,40.400492026660594,"(-3.634744478732248, 40.400492026660594)"
289,"Calle Eugenio Caxes frente al nº 12,",12,125,5,17,1628,0,222 - Antonio López,0,222,0,23,2024-02-12 13:34:45,-3.7026789,40.3917871,"(-3.7026789, 40.3917871)"
290,"Paseo de la Ermita del Santo nº 48,",10,101,7,20,1629,0,223 - Ermita Santo,0,223,0,27,2024-02-12 13:34:45,-3.724576,40.406448,"(-3.724576, 40.406448)"
291,"Calle Caramuel nº 51,",10,102,10,17,1630,2,224 - Caramuel,0,224,0,27,2024-02-12 13:34:45,-3.7287,40.409,"(-3.7287, 40.409)"
292,"Calle Sierra Toledana nº 33,",13,136,3,21,1631,0,225 - Doctor Lozano,0,225,0,24,2024-02-12 13:34:45,-3.660345,40.402506,"(-3.660345, 40.402506)"
293,"Camino de Valderribas nº 94,",13,136,4,18,1632,0,226 - Sierra Toledana,0,226,0,23,2024-02-12 13:34:45,-3.6607768678037744,40.39901531507069,"(-3.6607768678037744, 40.39901531507069)"
294,"Calle Arroyo del Olivar nº 6,",13,132,1,22,1633,0,227 - Concordia,0,227,0,24,2024-02-12 13:34:45,-3.6659362429356372,40.39382977920336,"(-3.6659362429356372, 40.39382977920336)"
295,"Calle San Delfín nº 9,",11,111,1,17,1634,0,228 - San Delfín,0,228,0,18,2024-02-12 13:34:45,-3.7080429728445563,40.39440607959559,"(-3.7080429728445563, 40.39440607959559)"
296,"Calle Jose del Hierro nº 5,",15,153,10,13,1635,2,229 - C.D. Concepción,0,229,0,23,2024-02-12 13:34:45,-3.6486508,40.4369378,"(-3.6486508, 40.4369378)"
297,"Calle Carlota O'Neill nº 32,",15,155,11,13,1636,2,230 - Carlota O’Neill,0,230,0,24,2024-02-12 13:34:45,-3.6488254,40.4436792,"(-3.6488254, 40.4436792)"
298,"Calle Derechos Humanos nº 12,",15,155,6,18,1637,0,231 - Derechos Humanos,0,231,0,24,2024-02-12 13:34:45,-3.6557193,40.4398283,"(-3.6557193, 40.4398283)"
299,"Calle José María de Pereda nº 1,",15,151,11,16,1638,2,232 - José María Pereda,0,232,0,27,2024-02-12 13:34:45,-3.6486169,40.4327663,"(-3.6486169, 40.4327663)"
300,"Avenida Marqués de Corbera nº 12,",15,151,0,24,1639,0,233 - Marqués de Corbera 12,0,233,0,24,2024-02-12 13:34:45,-3.6555789,40.4229522,"(-3.6555789, 40.4229522)"
301,"Avenida Marqués de Corbera nº 52,",15,151,1,22,1640,0,234 - Marqués de Corbera 52,0,234,0,24,2024-02-12 13:34:45,-3.6510917,40.4261278,"(-3.6510917, 40.4261278)"
302,"Calle Sodio nº 1B,",02,024,12,11,1641,2,235 - Embajadores 191,0,235,0,23,2024-02-12 13:34:45,-3.691076,40.389041,"(-3.691076, 40.389041)"
303,"Paseo Imperial nº 20,",02,021,4,23,1642,0,236 - Paseo Imperial,0,236,0,27,2024-02-12 13:34:45,-3.7170785,40.4075794,"(-3.7170785, 40.4075794)"
304,"Calle Francisco Balseiro nº 1,",06,061,0,0,1643,3,xxx - 237 - Pablo Iglesias,1,xxx,0,0,2024-02-12 13:34:45,-3.710525,40.451333,"(-3.710525, 40.451333)"
305,"Calle San Germán nº 5,",06,062,11,13,1644,2,238 - San Germán 5,0,238,0,24,2024-02-12 13:34:45,-3.6932611,40.4561825,"(-3.6932611, 40.4561825)"
306,"Calle Francos Rodríguez nº 62,",06,066,5,17,1645,0,239 - Francos Rodríguez,0,239,0,23,2024-02-12 13:34:45,-3.7078331,40.4567132,"(-3.7078331, 40.4567132)"
307,"Avenida de Brasilia frente al nº 9,",04,044,7,16,1646,0,240 - Avenida Brasilia,0,240,0,23,2024-02-12 13:34:45,-3.66096,40.43666,"(-3.66096, 40.43666)"
308,"Avenida de Camilo José Cela nº 23,",04,044,0,23,1647,0,241 - Camilo José Cela,0,241,0,23,2024-02-12 13:34:45,-3.66779,40.4378,"(-3.66779, 40.4378)"
309,"Avenida Bruselas nº 56,",04,044,5,18,1648,0,242 - Avenida Bruselas,0,242,0,23,2024-02-12 13:34:45,-3.662928,40.439513,"(-3.662928, 40.439513)"
310,"Calle Cartagena nº 34,",04,044,3,20,1649,0,243 - Cartagena,0,243,0,23,2024-02-12 13:34:45,-3.67012,40.43503,"(-3.67012, 40.43503)"
311,"Calle Isaac Peral nº 44,",07,076,20,3,1650,1,244 - Hospital Clínico,0,244,0,23,2024-02-12 13:34:45,-3.71757,40.44003,"(-3.71757, 40.44003)"
312,"Calle Galileo nº 63,",07,072,2,21,1651,0,245 - Galileo,0,245,0,24,2024-02-12 13:34:45,-3.7101381,40.4363637,"(-3.7101381, 40.4363637)"
313,"Calle Santa Engracia nº 87,",07,073,3,24,1652,0,246 - Santa Engracia 87,0,246,0,27,2024-02-12 13:34:45,-3.6992484724046637,40.43595788149785,"(-3.6992484724046637, 40.43595788149785)"
314,"Calle Zurbano nº 90,",07,075,13,9,1653,2,247 - Zurbano,0,247,0,23,2024-02-12 13:34:45,-3.69281,40.43837,"(-3.69281, 40.43837)"
315,"Calle Sinesio Delgado nº 2,",08,085,23,4,1654,1,248 - Torre Cepsa,0,248,0,27,2024-02-12 13:34:45,-3.6879973,40.4743209,"(-3.6879973, 40.4743209)"
316,"Paseo de la Castellana nº 298,",05,056,19,5,1655,1,249 - Manuel Caldeiro,0,249,0,24,2024-02-12 13:34:45,-3.6853186,40.4795018,"(-3.6853186, 40.4795018)"
317,"Calle Serrano nº 113B,",05,051,22,5,1656,1,250 - Serrano 113,0,250,0,27,2024-02-12 13:34:45,-3.6858096,40.4406491,"(-3.6858096, 40.4406491)"
318,"Calle Santa Hortensia nº 31,",05,052,7,16,1657,0,251 - Corazón de María,0,251,0,23,2024-02-12 13:34:45,-3.66683,40.44421,"(-3.66683, 40.44421)"
319,"Calle Rodríguez Jaén nº 40,",05,056,15,8,1658,2,252 - Chamartín,0,252,0,23,2024-02-12 13:34:45,-3.6839695,40.4717403,"(-3.6839695, 40.4717403)"
320,"Calle Doctor Fleming nº 7,",05,054,14,5,1659,1,253 - Doctor Fleming,0,253,0,19,2024-02-12 13:34:45,-3.68844,40.45546,"(-3.68844, 40.45546)"
321,"Avenida Pío XII nº 3,",05,055,4,19,1660,0,254 - Pío XII,0,254,0,23,2024-02-12 13:34:45,-3.67656,40.461,"(-3.67656, 40.461)"
322,"Calle General López Pozas nº 2,",05,055,15,8,1661,2,255 - López Pozas,0,255,0,23,2024-02-12 13:34:45,-3.685292,40.46361,"(-3.685292, 40.46361)"
323,"Calle Beatriz de Bobadilla frente al nº 2,",09,093,19,4,1662,1,256 - Reina Victoria,0,256,0,23,2024-02-12 13:34:45,-3.71383,40.44635,"(-3.71383, 40.44635)"
324,"Avenida Juan de Herrera frente a la calle Paul Guinard,",09,093,19,4,1663,1,257 - INEF,0,257,0,23,2024-02-12 13:34:45,-3.730527,40.438873,"(-3.730527, 40.438873)"
325,"Avenida de la Complutense (Metro Ciudad Universitaria),",09,093,14,10,1664,2,258 - Ciudad Universitaria 1,0,258,0,24,2024-02-12 13:34:45,-3.726939,40.444311,"(-3.726939, 40.444311)"
326,"Avenida de la Complutense (Metro Ciudad Universitaria),",09,093,19,0,1665,1,259 - Ciudad Universitaria 2,0,259,0,19,2024-02-12 13:34:45,-3.726752004160312,40.44270528449462,"(-3.726752004160312, 40.44270528449462)"
327,"Calle José Antonio Novais frente al nº 12,",09,093,18,6,1666,1,260 - Facultad Biología,0,260,0,24,2024-02-12 13:34:45,-3.7272945,40.4483322,"(-3.7272945, 40.4483322)"
328,"Avenida Complutense nº 23,",09,093,16,7,1667,2,261 - Facultad Derecho,0,261,0,23,2024-02-12 13:34:45,-3.7296756,40.4505516,"(-3.7296756, 40.4505516)"
329,"Amparo Usera , 46,",12,125,16,7,1951,2,"384 - Amparo Usera , 46",0,384,0,23,2024-02-12 13:34:45,-3.7061449,40.38707469,"(-3.7061449, 40.38707469)"
330,"Doctor Tolosa Latour, 7,",12,127,16,7,1952,2,"388 - Doctor Tolosa Latour, 7",0,388,0,23,2024-02-12 13:34:45,-3.70041478,40.37837955,"(-3.70041478, 40.37837955)"
331,"Calle Campotejar , 25,",12,122,17,6,1953,1,"385 - Calle Campotejar , 25",0,385,0,23,2024-02-12 13:34:45,-3.70388671,40.36721104,"(-3.70388671, 40.36721104)"
332,"Isabelita Usera, 44,",12,127,6,17,1954,0,"387 - Isabelita Usera, 44",0,387,0,22,2024-02-12 13:34:45,-3.70773972,40.38272256,"(-3.70773972, 40.38272256)"
333,"Avenida de la Perla, 35,",12,123,12,11,1955,2,"383 - Avenida de la Perla, 35",0,383,0,23,2024-02-12 13:34:45,-3.6939702,40.3700017,"(-3.6939702, 40.3700017)"
334,"Avenida de los Poblados, 130,",12,121,17,6,1956,1,"386 - Avenida de los Poblados, 130",0,386,0,23,2024-02-12 13:34:45,-3.71331521,40.37347443,"(-3.71331521, 40.37347443)"
335,"Avenida Ramon y Cajal, 101,",15,157,3,20,1957,0,"476 - Avenida Ramon y Cajal, 101",0,476,0,23,2024-02-12 13:34:45,-3.662016,40.453493,"(-3.662016, 40.453493)"
336,"Misterios,1,",15,153,21,2,1958,1,"477 - Misterios, 1",0,477,0,23,2024-02-12 13:34:45,-3.638904,40.438278,"(-3.638904, 40.438278)"
337,"Jose del Hierro , 69,",15,154,9,14,1959,2,"478 - Jose del Hierro , 69",0,478,0,23,2024-02-12 13:34:45,-3.6410572,40.44152084,"(-3.6410572, 40.44152084)"
338,"Angel Muñoz, 1,",15,156,2,25,1960,0,"479 - Angel Muñoz, 1",0,479,0,27,2024-02-12 13:34:45,-3.6558371312827975,40.45478362295884,"(-3.6558371312827975, 40.45478362295884)"
339,"Vicente Muzas, 12,",15,157,10,13,1961,2,"480 - Vicente Muzas, 12",0,480,0,23,2024-02-12 13:34:45,-3.66044255,40.45903315,"(-3.66044255, 40.45903315)"
340,"Diego Ayllon, 2,",15,156,5,18,1962,0,"481 - Diego Ayllon, 2",0,481,0,23,2024-02-12 13:34:45,-3.65219063,40.45117857,"(-3.65219063, 40.45117857)"
341,"Calle Velero (metro el capricho), 17,Comunidad de Madrid España",21,211,12,15,1963,2,"554 - Calle Velero (metro el capricho), 17",0,554,0,27,2024-02-12 13:34:45,-3.5941,40.453,"(-3.5941, 40.453)"
342,"Avenida Burgos, 17,",05,056,13,10,1964,2,"284 - Avenida Burgos, 17",0,284,0,23,2024-02-12 13:34:45,-3.6757900294303902,40.473593878889254,"(-3.6757900294303902, 40.473593878889254)"
343,"Campuzano, 1,",15,153,6,17,1965,0,"482 - Campuzano, 1",0,482,0,23,2024-02-12 13:34:45,-3.6424,40.4359,"(-3.6424, 40.4359)"
344,"Calle Marcelino Alvarez, 35,",15,151,17,6,1966,1,"483 - Calle Marcelino Alvarez, 35",0,483,0,23,2024-02-12 13:34:45,-3.6534324,40.4297428,"(-3.6534324, 40.4297428)"
345,"Calle Luis Campos, 3,",15,152,13,10,1967,2,"484 - Calle Luis Campos, 3",0,484,0,23,2024-02-12 13:34:45,-3.632389,40.42893071,"(-3.632389, 40.42893071)"
346,"Calle de la Carretera de Canillas, 40,",16,163,2,21,1968,0,"523 - Calle de la Carretera de Canillas, 40",0,523,0,23,2024-02-12 13:34:45,-3.65089253,40.4628701,"(-3.65089253, 40.4628701)"
347,"Calle Santa Maria Magdalena, 15,",05,055,11,12,1969,2,"285 - Calle Santa Maria Magdalena, 15",0,285,0,23,2024-02-12 13:34:45,-3.6706,40.4631,"(-3.6706, 40.4631)"
348,"Plaza Duque Pastrana, 1,",05,056,12,11,1970,2,286 - Plaza Duque Pastrana 1,0,286,0,23,2024-02-12 13:34:45,-3.6779,40.4679,"(-3.6779, 40.4679)"
349,"Calle de la Yuca, 1,",05,056,16,7,1971,2,"287 - Calle de la Yuca, 1",0,287,0,23,2024-02-12 13:34:45,-3.6762,40.4765,"(-3.6762, 40.4765)"
350,"Memorial 11 Marzo de 2004, 28,",05,055,10,13,1972,2,"288 - Memorial 11 Marzo de 2004, 28",0,288,0,23,2024-02-12 13:34:45,-3.6723,40.4664,"(-3.6723, 40.4664)"
351,"Glorieta Luis Rosales, sn,",16,164,9,14,1973,2,"524 - Glorieta Luis Rosales, sn",0,524,0,23,2024-02-12 13:34:45,-3.6543,40.4673,"(-3.6543, 40.4673)"
352,"Fuente Carrantona , 33,",14,143,12,15,1974,2,"460 - Fuente Carrantona , 33",0,460,0,27,2024-02-12 13:34:45,-3.63192261,40.4070216,"(-3.63192261, 40.4070216)"
353,"Luis de Hoyos Sainz, 198,",14,141,13,10,1975,2,455 - Luis de Hoyos Sainz  198,0,455,0,23,2024-02-12 13:34:45,-3.62927465,40.400094,"(-3.62927465, 40.400094)"
354,"Encomienda de Palacios, 8,",14,145,16,7,1976,2,"456 - Encomienda de Palacios, 8",0,456,0,23,2024-02-12 13:34:45,-3.6464,40.4005,"(-3.6464, 40.4005)"
355,"Calle Ramirez Tome, 31,",13,135,16,11,1977,2,"416 - Calle Ramirez Tome, 31",0,416,0,27,2024-02-12 13:34:45,-3.6459739361763055,40.38875618103898,"(-3.6459739361763055, 40.38875618103898)"
356,"Calle de Romeo y Julieta, 12,",13,133,7,20,1978,0,"417 - Calle de Romeo y Julieta, 12",0,417,0,27,2024-02-12 13:34:45,-3.66217563,40.37873799,"(-3.66217563, 40.37873799)"
357,"Calle Puerto de Arlaban, 83,",13,132,1,26,1979,0,"418 - Calle Puerto de Arlaban, 83",0,418,0,27,2024-02-12 13:34:45,-3.6675,40.3864,"(-3.6675, 40.3864)"
358,"Calle Cronos , 14,",20,201,21,6,1980,1,"496 - Calle Cronos , 14",0,496,0,27,2024-02-12 13:34:45,-3.6194333,40.4384695,"(-3.6194333, 40.4384695)"
359,"Hermanos Garcia Noblejas, 133,",20,204,12,11,1981,2,501 - Hermanos Garcia Noblejas 133,0,501,0,23,2024-02-12 13:34:45,-3.6242,40.4191,"(-3.6242, 40.4191)"
360,"Calle Alcalá, 546,",20,201,14,13,1982,2,"498 - Calle Alcala, 546",0,498,0,27,2024-02-12 13:34:45,-3.6178317,40.44313349999999,"(-3.6178317, 40.44313349999999)"
361,"Calle Alcala, 590,",20,207,7,16,1983,0,"499 - Calle Alcala, 590",0,499,0,23,2024-02-12 13:34:45,-3.6121996,40.4466561,"(-3.6121996, 40.4466561)"
362,"Calle Aracne, 17,",20,206,13,14,1984,2,"500 - Calle Aracne, 17",0,500,0,27,2024-02-12 13:34:45,-3.5895,40.445,"(-3.5895, 40.445)"
363,"Calle Alcalá, 506,",20,201,15,8,1985,2,"497 - Calle Alcala, 506",0,497,0,23,2024-02-12 13:34:45,-3.6274,40.4407,"(-3.6274, 40.4407)"
364,"Calle Puerto Serrano, 1,",02,024,16,7,1986,2,"265 - Calle Puerto Serrano, 1",0,265,0,23,2024-02-12 13:34:45,-3.688461,40.385412,"(-3.688461, 40.385412)"
365,"Calle Comandante Fontanes, 1,",11,113,16,7,1987,2,"351 - Calle Comandante Fontanes, 1",0,351,0,23,2024-02-12 13:34:45,-3.7211209,40.3951415,"(-3.7211209, 40.3951415)"
366,"Calle de Ervigio,",11,113,4,19,1988,0,350 - Calle de Ervigio,0,350,0,23,2024-02-12 13:34:45,-3.7315,40.3947,"(-3.7315, 40.3947)"
367,"Julio Merino, 5,",12,124,14,9,1989,2,"389 - Julio Merino, 5",0,389,0,23,2024-02-12 13:34:45,-3.7032,40.3831,"(-3.7032, 40.3831)"
368,"Calle de la Avena, 10,",12,126,8,15,1990,2,"390 - Calle de la Avena, 10",0,390,0,23,2024-02-12 13:34:45,-3.7159,40.3773,"(-3.7159, 40.3773)"
369,"Avenida de Cantabria, 6,",21,211,15,9,1991,2,"556 - Avenida de Cantabria, 6",0,556,0,24,2024-02-12 13:34:45,-3.58772201,40.45462514,"(-3.58772201, 40.45462514)"
370,"Paseo de la Alameda de Osuna, 48,",21,211,12,15,1992,2,"555 - Paseo de la Alameda de Osuna, 48",0,555,0,27,2024-02-12 13:34:45,-3.59812171,40.45476837,"(-3.59812171, 40.45476837)"
371,"Francisco Villaespesa, 39,",15,151,9,14,1993,2,485 - Francisco Villaespesa  39,0,485,0,23,2024-02-12 13:34:45,-3.6464629,40.4293263,"(-3.6464629, 40.4293263)"
372,"Calle Arzobispo Morcillo, 6,",08,085,5,22,1994,0,"570 - Calle Arzobispo Morcillo, 6",0,570,0,27,2024-02-12 13:34:45,-3.6938,40.4815,"(-3.6938, 40.4815)"
373,"Calle Hernani, 59,",06,062,6,17,1995,0,"295 - Calle Hernani, 59",0,295,0,23,2024-02-12 13:34:45,-3.6972,40.4481,"(-3.6972, 40.4481)"
374,"Calle de Costa Verde, 24,",06,064,8,15,1996,2,"296 - Calle de Costa Verde, 24",0,296,0,23,2024-02-12 13:34:45,-3.696862,40.469477,"(-3.696862, 40.469477)"
375,"Calle Simancas, 2,",06,064,13,10,1997,2,"297 - Calle Simancas, 2",0,297,0,23,2024-02-12 13:34:45,-3.69511298,40.4655,"(-3.69511298, 40.4655)"
376,"Calle Gallur, 5,",10,101,15,8,1998,2,"323 - Calle Gallur, 5",0,323,0,23,2024-02-12 13:34:45,-3.7359,40.3984,"(-3.7359, 40.3984)"
377,"Calle de las Higueras, 49,",10,103,7,16,1999,0,"324 - Calle de las Higueras, 49",0,324,0,23,2024-02-12 13:34:45,-3.745096152114864,40.40457132475174,"(-3.745096152114864, 40.40457132475174)"
378,"Hacienda de Pavones, 148,",14,145,14,9,2000,2,"457 - Hacienda de Pavones, 148",0,457,0,23,2024-02-12 13:34:45,-3.6419,40.4026,"(-3.6419, 40.4026)"
379,"Calle de la Maquinilla,",13,134,5,19,2001,0,432 - Calle de la Maquinilla,0,432,0,24,2024-02-12 13:34:45,-3.63648424,40.38078101,"(-3.63648424, 40.38078101)"
380,"Calle del Marques de Viana,89. Madrid ,",06,066,4,15,2002,0,298 - Calle del Marques de Viana,0,298,0,19,2024-02-12 13:34:45,-3.704478,40.463643,"(-3.704478, 40.463643)"
381,"C Sierra de Guadalupe, 11,",18,181,21,6,2003,1,"437 - C Sierra de Guadalupe, 11",0,437,0,27,2024-02-12 13:34:45,-3.62376457,40.38135158,"(-3.62376457, 40.38135158)"
382,"Calle de la Verdad, 14c,",11,112,10,13,2004,2,"358 - Calle de la Verdad, 14c",0,358,0,23,2024-02-12 13:34:45,-3.71716,40.391787,"(-3.71716, 40.391787)"
383,"Calle Algorta, 2,",11,113,11,12,2005,2,"352 - Calle Algorta, 2",0,352,0,23,2024-02-12 13:34:45,-3.72745169,40.39162261454714,"(-3.72745169, 40.39162261454714)"
384,"Fernando Gabriel , 5,",15,152,8,16,2006,2,"492 - Fernando Gabriel , 5",0,492,0,24,2024-02-12 13:34:45,-3.63949891,40.42466356,"(-3.63949891, 40.42466356)"
385,"Paseo de los Jesuitas  67,",10,102,14,13,2007,2,322 - Paseo de los Jesuitas  67,0,322,0,27,2024-02-12 13:34:45,-3.7351,40.408,"(-3.7351, 40.408)"
386,"Avenida Cordoba, 21,",12,124,8,15,2008,2,"392 - Avenida Cordoba, 21",0,392,0,23,2024-02-12 13:34:45,-3.697856,40.38268,"(-3.697856, 40.38268)"
387,"Calle de Candilejas, 5,",13,133,16,7,2009,2,"420 - Calle de Candilejas, 5",0,420,0,23,2024-02-12 13:34:45,-3.66300383,40.38263599,"(-3.66300383, 40.38263599)"
388,"Calle Puerto de Balbaran, 10,",13,133,22,5,2010,1,"419 - Calle Puerto de Balbaran, 10",0,419,0,27,2024-02-12 13:34:45,-3.655868,40.3762374,"(-3.655868, 40.3762374)"
389,"Calle de Cabeza Mesada, 5,",18,183,12,15,2011,2,"439 - Calle de Cabeza Mesada, 5",0,439,0,27,2024-02-12 13:34:45,-3.629413,40.37647902,"(-3.629413, 40.37647902)"
390,"Avenida de Orovilla, 53,",17,174,10,17,2012,2,"398 - Avenida de Orovilla, 53",0,398,0,27,2024-02-12 13:34:45,-3.6895,40.3587,"(-3.6895, 40.3587)"
391,"Avenida Monforte de Lemos, 17,",08,085,8,15,2013,2,"569 - Avenida Monforte de Lemos, 17",0,569,0,23,2024-02-12 13:34:45,-3.6965,40.4795,"(-3.6965, 40.4795)"
392,"Calle Melchor Fernandez Almagro, 80,",08,084,13,10,2014,2,"571 - Calle Melchor Fernandez Almagro, 80",0,571,0,23,2024-02-12 13:34:45,-3.710326199999999,40.4756475,"(-3.710326199999999, 40.4756475)"
393,"Calle Valle de Mena, 5,",09,094,6,17,2015,0,"304 - Calle Valle de Mena, 5",0,304,0,23,2024-02-12 13:34:45,-3.71527245,40.46962735,"(-3.71527245, 40.46962735)"
394,"Calle del Cobre (Metro Arganzuela Planetario),",02,025,14,9,2017,2,268 - Calle del Cobre (M. Planetario),0,268,0,23,2024-02-12 13:34:45,-3.689031463575172,40.39338327980599,"(-3.689031463575172, 40.39338327980599)"
395,"Paseo de la Florida, 37,",09,091,8,15,2019,2,"305 -  Paseo de la Florida, 37",0,305,0,23,2024-02-12 13:34:45,-3.72317757,40.42276114,"(-3.72317757, 40.42276114)"
396,"Calle Santo Ángel de la Guarda , 6,",09,094,8,15,2020,2,"306 - Calle Santo Ángel de la Guarda , 6",0,306,0,23,2024-02-12 13:34:45,-3.7121965,40.4617959,"(-3.7121965, 40.4617959)"
397,"Calle Serrano Galvache,",15,159,7,16,2021,0,486 - Calle Serrano Galvache,0,486,0,23,2024-02-12 13:34:45,-3.6679379,40.471382,"(-3.6679379, 40.471382)"
398,"Calle Puertollano,",20,208,15,8,2022,2,502  - Calle Puertollano,0,502,0,23,2024-02-12 13:34:45,-3.6237372,40.4425157,"(-3.6237372, 40.4425157)"
399,"Calle Gallegos,",19,191,22,5,2023,1,462 - Calle Gallegos,0,462,0,27,2024-02-12 13:34:45,-3.6102747,40.40240379,"(-3.6102747, 40.40240379)"
400,"Calle del Arroyo del Olivar, 63,",13,133,4,20,2024,0,"421 - Arroyo del Olivar, 63",0,421,0,24,2024-02-12 13:34:45,-3.653269,40.388435,"(-3.653269, 40.388435)"
401,"Calle Manuel Uribe, 1,",15,158,6,17,2025,0,"487 - Calle Manuel Uribe, 1",0,487,0,23,2024-02-12 13:34:45,-3.66503419,40.46434131,"(-3.66503419, 40.46434131)"
402,"422 - Travesia de Palomeras, 7,",13,132,3,21,2026,0,"422 - Travesia de Palomeras, 7",0,422,0,24,2024-02-12 13:34:45,-3.6705179,40.39017003,"(-3.6705179, 40.39017003)"
403,"Avenida de Entrevias, 56,",13,131,15,9,2027,2,"423 - Avenida de Entrevias, 56",0,423,0,24,2024-02-12 13:34:45,-3.66855013,40.38138801,"(-3.66855013, 40.38138801)"
404,"Camino de Valderribas, 47,",13,136,9,15,2028,2,"424 - Camino de Valderribas, 47",0,424,0,24,2024-02-12 13:34:45,-3.663958,40.4002231,"(-3.663958, 40.4002231)"
405,"Calle Ramon Perez de Ayala, 45,",13,136,12,12,2029,2,"425 - Calle Ramon Perez de Ayala, 45",0,425,0,24,2024-02-12 13:34:45,-3.65381017,40.40003472,"(-3.65381017, 40.40003472)"
406,"Calle Humanes, 3,",13,135,9,15,2030,2,"426 - Calle Humanes, 3",0,426,0,24,2024-02-12 13:34:45,-3.64932678,40.3952121,"(-3.64932678, 40.3952121)"
407,"Calle de los Andaluces, 2,",13,134,18,6,2031,1,"427 - Calle de los Andaluces, 2",0,427,0,24,2024-02-12 13:34:45,-3.64148304,40.3914244,"(-3.64148304, 40.3914244)"
408,"Avenida de la Albufera,",13,133,8,15,2032,2,"428 - Avenida de la Albufera, 136",0,428,0,24,2024-02-12 13:34:45,-3.6571,40.3919,"(-3.6571, 40.3919)"
409,"Manuel Noya , 29,",12,125,11,13,2033,2,"393 - Manuel Noya , 29",0,393,0,24,2024-02-12 13:34:45,-3.7117979,40.3853787,"(-3.7117979, 40.3853787)"
410,"Serrano Galvache, 56,",15,159,10,14,2034,2,"489 - Serrano Galvache, 56",0,489,0,24,2024-02-12 13:34:45,-3.67144504,40.47675257,"(-3.67144504, 40.47675257)"
411,"Hermanos Garcia Noblejas, 158,",15,152,10,14,2035,2,"490 - Hermanos Garcia Noblejas, 158",0,490,0,24,2024-02-12 13:34:45,-3.62888094,40.42427523,"(-3.62888094, 40.42427523)"
412,"Calle Ricardo Ortiz, 33,",15,151,11,13,2036,2,"488 - Calle Ricardo Ortiz, 33",0,488,0,24,2024-02-12 13:34:45,-3.65796439,40.42657032,"(-3.65796439, 40.42657032)"
413,"Calle de Bacares, 20,",16,165,16,8,2037,2,"525 - Calle de Bacares, 20",0,525,0,24,2024-02-12 13:34:45,-3.66269029,40.47675499,"(-3.66269029, 40.47675499)"
414,"Calle de San Roman del Valle, 20,",20,204,7,17,2038,0,"504 - Calle de San Roman del Valle, 20",0,504,0,24,2024-02-12 13:34:45,-3.623466935545257,40.42309928573645,"(-3.623466935545257, 40.42309928573645)"
415,"Calle Zaldivar,",20,201,18,6,2039,1,503 - Calle Zaldivar,0,503,0,24,2024-02-12 13:34:45,-3.62650373,40.43209033,"(-3.62650373, 40.43209033)"
416,"Arroyo Bueno, 53,",17,171,6,21,2040,0,"404 -  Arroyo Bueno, 53",0,404,0,27,2024-02-12 13:34:45,-3.710985,40.349111,"(-3.710985, 40.349111)"
417,"Calle Mercedes Arteaga, 21,",11,112,11,13,2041,2,"353 - Calle Mercedes Arteaga, 21",0,353,0,24,2024-02-12 13:34:45,-3.722217570475459,40.39251608002938,"(-3.722217570475459, 40.39251608002938)"
418,"Calle de la Via,",11,112,15,9,2042,2,"355 - Calle de la Via, 52",0,355,0,24,2024-02-12 13:34:45,-3.7182338,40.3854641,"(-3.7182338, 40.3854641)"
419,"Calle Francisco de Tejada, 1,",10,102,22,2,2043,1,"326 - Calle Francisco de Tejada, 1",0,326,0,24,2024-02-12 13:34:45,-3.739615781020349,40.40937950320982,"(-3.739615781020349, 40.40937950320982)"
420,"Calle El Greco, 27,",10,103,11,13,2044,2,"327 - Calle El Greco, 27",0,327,0,24,2024-02-12 13:34:45,-3.74726153,40.40741199,"(-3.74726153, 40.40741199)"
421,"Calle del Arroyo Belincoso, 26,",14,143,20,4,2045,1,"458 - Calle del Arroyo Belincoso, 26",0,458,0,24,2024-02-12 13:34:45,-3.65256604,40.40991083,"(-3.65256604, 40.40991083)"
422,"Avenida Moratalaz, 25,",14,144,3,21,2046,0,"459 - Avenida Moratalaz, 25",0,459,0,24,2024-02-12 13:34:45,-3.66000272,40.40750626,"(-3.66000272, 40.40750626)"
423,"Corregidor licenciado Antonio de Mena, sn,",14,143,4,20,2047,0,"461 - Corregidor Ldo. Antonio de Mena, sn",0,461,0,24,2024-02-12 13:34:45,-3.6408,40.4099,"(-3.6408, 40.4099)"
424,"Calle Portalegre, 7,",11,112,14,10,2048,2,"356 - Calle Portalegre, 7",0,356,0,24,2024-02-12 13:34:45,-3.72364769,40.38937686,"(-3.72364769, 40.38937686)"
425,"Avenida Monforte de Lemos, 123,",08,084,17,7,2049,2,"572 - Avenida Monforte de Lemos, 123",0,572,0,23,2024-02-12 13:34:45,-3.70997335,40.47810429,"(-3.70997335, 40.47810429)"
426,"Calle Melchor Fernandez Almagro, 16,",08,085,10,14,2050,2,"573 - Calle Melchor Fernandez Almagro, 16",0,573,0,24,2024-02-12 13:34:45,-3.69962571,40.47772776,"(-3.69962571, 40.47772776)"
427,"Ginzo de Limia, 36,",08,085,13,11,2051,2,575 - Ginzo de Limia  36,0,575,0,24,2024-02-12 13:34:45,-3.703526,40.47817,"(-3.703526, 40.47817)"
428,"Calle Chantada, 2,",08,084,16,8,2052,2,"574 - Chantada, 2",0,574,0,24,2024-02-12 13:34:45,-3.710678,40.472695,"(-3.710678, 40.472695)"
429,"Paseo de Federico Garcia Lorca, 4,",18,181,5,13,2053,0,"440 - Paseo de Federico Garcia Lorca, 4",0,440,0,18,2024-02-12 13:34:45,-3.62144691,40.3795035,"(-3.62144691, 40.3795035)"
430,"Calle Seis, sn,",20,206,12,12,2054,2,"507 - Calle Seis, sn",0,507,0,24,2024-02-12 13:34:45,-3.59650295,40.44845033,"(-3.59650295, 40.44845033)"
431,"Calle Rosario Pino,",06,063,9,15,2055,2,299 - Calle Rosario Pino,0,299,0,24,2024-02-12 13:34:45,-3.69193246,40.46204955,"(-3.69193246, 40.46204955)"
432,"Calle Capitan Blanco Argibay,",06,065,2,22,2056,0,300 - Capitan Blanco Argibay,0,300,0,24,2024-02-12 13:34:45,-3.7031882,40.4667435,"(-3.7031882, 40.4667435)"
433,"Calle Muller,",06,065,5,19,2057,0,301 - Muller,0,301,0,24,2024-02-12 13:34:45,-3.69837565,40.46518187,"(-3.69837565, 40.46518187)"
434,"Gran Avenida, 27,",12,121,15,9,2059,2,"396 - Gran Avenida, 27",0,396,0,24,2024-02-12 13:34:45,-3.70760649,40.36997711,"(-3.70760649, 40.36997711)"
435,"Periana, 24,",12,123,17,7,2060,1,"394 - Periana, 24",0,394,0,24,2024-02-12 13:34:45,-3.68765805,40.36672327,"(-3.68765805, 40.36672327)"
436,"Calle de Moreja, 30,",12,122,8,16,2061,2,"397 - Calle de Moreja, 30",0,397,0,24,2024-02-12 13:34:45,-3.69838038,40.36809336,"(-3.69838038, 40.36809336)"
437,"Calle de Bohemios, 1,",17,175,17,7,2062,1,"399 - Calle de Bohemios, 1",0,399,0,24,2024-02-12 13:34:45,-3.693901,40.356536,"(-3.693901, 40.356536)"
438,"Calle de Torremolinos, 2,",13,134,7,17,2063,0,"430 - Calle de Torremolinos, 2",0,430,0,24,2024-02-12 13:34:45,-3.64178999,40.38500948,"(-3.64178999, 40.38500948)"
439,"Calle Ariel, 7,",02,024,15,9,2064,2,"269 - Calle Ariel, 7",0,269,0,24,2024-02-12 13:34:45,-3.67970176633988,40.393023802369754,"(-3.67970176633988, 40.393023802369754)"
440,"Calle Esteban Collantes 63,",15,152,5,19,2065,0,491 - Esteban Collantes 63,0,491,0,24,2024-02-12 13:34:45,-3.637663,40.432883,"(-3.637663, 40.432883)"
441,"Calle de Velacho Alto, 2,",16,165,5,19,2066,0,"527 - Calle de Velacho Alto, 2",0,527,0,24,2024-02-12 13:34:45,-3.65926884,40.47250314,"(-3.65926884, 40.47250314)"
442,"Plaza del Liceo,",16,163,12,12,2067,2,526 - Plaza del Liceo,0,526,0,24,2024-02-12 13:34:45,-3.64441924,40.45754368,"(-3.64441924, 40.45754368)"
443,"Puerto del Canfranc, 18,",13,136,7,17,2068,0,"431 - Puerto del Canfranc, 18",0,431,0,24,2024-02-12 13:34:45,-3.6634,40.3969,"(-3.6634, 40.3969)"
444,"Calle de Carlos Martin Alvarez, 38,",13,133,13,10,2069,2,"429 - Calle de Carlos Martin Alvarez, 38",0,429,0,23,2024-02-12 13:34:45,-3.6635,40.3895,"(-3.6635, 40.3895)"
445,"Calle del Sorbe , 20,",11,111,9,15,2070,2,"357 - Calle del Sorbe , 20",0,357,0,24,2024-02-12 13:34:45,-3.71320917,40.3898701,"(-3.71320917, 40.3898701)"
446,"Calle Teresa López Valcárcel esq. Teniente Coronel Noreña,",02,024,13,11,2071,2,270 - Calle Teresa López Valcárcel,0,270,0,24,2024-02-12 13:34:45,-3.69328771,40.38862908,"(-3.69328771, 40.38862908)"
447,"Arturo Soria, 312,",15,159,6,17,2072,0,"493. - 493 -Arturo Soria, 312",0,493.,0,23,2024-02-12 13:34:45,-3.6684167,40.47636724,"(-3.6684167, 40.47636724)"
448,"Calle de Villalobos, 28,",13,134,10,14,2073,2,"433 - Calle de Villalobos, 28",0,433,0,24,2024-02-12 13:34:45,-3.65076037,40.38161669,"(-3.65076037, 40.38161669)"
449,"Calle de Alan Turing,",13,134,22,1,2074,1,436 - Calle de Alan Turing,0,436,0,23,2024-02-12 13:34:45,-3.62713659,40.3901675,"(-3.62713659, 40.3901675)"
450,"Calle Charleroi,",13,134,12,12,2075,2,434 - Calle Charleroi,0,434,0,24,2024-02-12 13:34:45,-3.63219372,40.38191654,"(-3.63219372, 40.38191654)"
451,"Calle Albarracin, sn,",20,201,15,9,2076,2,"506 - Calle Albarracin, s/n",0,506,0,24,2024-02-12 13:34:45,-3.63251641,40.43397327,"(-3.63251641, 40.43397327)"
452,"Calle Castillo de Ucles, 37,",20,201,13,10,2077,2,"505 - Calle Castillo de Ucles, 37",0,505,0,24,2024-02-12 13:34:45,-3.62306578,40.4315255,"(-3.62306578, 40.4315255)"
453,"Calle San Claudio, 154,",13,134,8,16,2078,2,"435 - Calle San Claudio, 154",0,435,0,24,2024-02-12 13:34:45,-3.63953994,40.38902883,"(-3.63953994, 40.38902883)"
454,"Calle Alcala  (acera de tránsito peatonal),",20,207,0,0,2079,3,508 - Alcala  (acera de tránsito peatonal),1,508,0,0,2024-02-12 13:34:45,-3.60960104,40.44910362,"(-3.60960104, 40.44910362)"
455,"Paseo de la Dirección, frente 297,",06,065,6,18,2080,0,"302 - Paseo de la Dirección ,frente 297",0,302,0,24,2024-02-12 13:34:45,-3.703955,40.4702445774,"(-3.703955, 40.4702445774)"
456,"Calle Casalarreina,",19,191,13,11,2081,2,463 - Calle Casalarreina 18,0,463,0,24,2024-02-12 13:34:45,-3.6123187980524585,40.40939089860396,"(-3.6123187980524585, 40.40939089860396)"
457,"Avenida de Daroca 321,",19,191,14,10,2082,2,"464 - Avenida de Daroca, 321",0,464,0,24,2024-02-12 13:34:45,-3.61283416,40.40634029,"(-3.61283416, 40.40634029)"
458,"Paseo de los Gigantes y Cabezudos, 4,",17,175,8,16,2083,2,"400 - Paseo de los Gigantes y Cabezudos, 4",0,400,0,24,2024-02-12 13:34:45,-3.69399661,40.36064659,"(-3.69399661, 40.36064659)"
459,"Calle San Restituto, 74,",09,094,8,16,2084,2,"307 - Calle San Restituto, 74",0,307,0,24,2024-02-12 13:34:45,-3.71693008,40.46588016,"(-3.71693008, 40.46588016)"
460,"Paseo de la Dirección, 161,",06,065,4,20,2085,0,"303 - Paseo de la Dirección, 161",0,303,0,24,2024-02-12 13:34:45,-3.7080850848120273,40.46778929738312,"(-3.7080850848120273, 40.46778929738312)"
461,"Avenida El Ferrol, 18,",08,084,5,19,2086,0,"576 - Avenida El Ferrol, 18",0,576,0,24,2024-02-12 13:34:45,-3.70510525,40.47431313,"(-3.70510525, 40.47431313)"
462,"577 - Calle Monforte de Lemos, 103,",08,084,13,11,2087,2,"577 - Calle Monforte de Lemos, 103",0,577,0,24,2024-02-12 13:34:45,-3.70566914,40.47899993,"(-3.70566914, 40.47899993)"
463,"Calle Ofelia Nieto, 75,",09,094,10,14,2088,2,"309 - Calle Ofelia Nieto, 75",0,309,0,24,2024-02-12 13:34:45,-3.708734,40.462051,"(-3.708734, 40.462051)"
464,"Calle de María Auxiladora 1,",09,093,0,24,2089,0,308 - María Auxiliadora 1,0,308,0,24,2024-02-12 13:34:45,-3.71346147,40.45772941,"(-3.71346147, 40.45772941)"
465,"Avenida de Guadalajara, 101,",20,204,12,12,2090,2,"510 - Avenida de Guadalajara, 101",0,510,0,24,2024-02-12 13:34:45,-3.61346199,40.42218968,"(-3.61346199, 40.42218968)"
466,"Calle Aquitania, 31,",20,204,9,18,2091,0,511 - Aquitania 31,0,511,0,26,2024-02-12 13:34:45,-3.61726728,40.41912347,"(-3.61726728, 40.41912347)"
467,"Calle de los Aparejadores, 24,",20,204,7,17,2092,0,"512 - Calle de los Aparejadores, 24",0,512,0,24,2024-02-12 13:34:45,-3.61537023,40.42667885,"(-3.61537023, 40.42667885)"
468,"Avenida de Niza, 9,",20,205,9,18,2093,2,"513 - Avenida de Niza, 9",0,513,0,27,2024-02-12 13:34:45,-3.60645414,40.4271211,"(-3.60645414, 40.4271211)"
469,"Calle Maria Sevilla Diago, 3,",20,205,9,15,2094,2,"514 - Maria Sevilla Diago, 3",0,514,0,24,2024-02-12 13:34:45,-3.61095077,40.43283006,"(-3.61095077, 40.43283006)"
470,"Avenida de Hellin, 13,",20,202,10,14,2095,2,"515 - Avenida de Hellin, 13",0,515,0,24,2024-02-12 13:34:45,-3.61579967,40.43091667,"(-3.61579967, 40.43091667)"
471,"Calle de El Toboso, 115,",11,113,7,16,2096,0,"359 - Calle de El Toboso, 115",0,359,0,23,2024-02-12 13:34:45,-3.7363397,40.3929901,"(-3.7363397, 40.3929901)"
472,"Avenida Nuestra Señora de Fatima, 34,",11,114,7,16,2097,0,"360 - Avda. Nuestra Señora de Fatima, 34",0,360,0,23,2024-02-12 13:34:45,-3.7470882,40.3840155,"(-3.7470882, 40.3840155)"
473,"Avenida de Abrantes, 108,",11,117,12,11,2098,2,"361 - Avenida de Abrantess, 108",0,361,0,23,2024-02-12 13:34:45,-3.73266666,40.37734672,"(-3.73266666, 40.37734672)"
474,"Avenida de Santa Eugenia, 9,",18,182,7,17,2099,0,"441 - Avenida de Santa Eugenia, 9",0,441,0,24,2024-02-12 13:34:45,-3.60948153,40.38600753,"(-3.60948153, 40.38600753)"
475,"Avenida del Mediterraneo, sn,",18,182,15,12,2100,2,"442 - Avenida del Mediterraneo, sn",0,442,0,27,2024-02-12 13:34:45,-3.60463,40.38305936,"(-3.60463, 40.38305936)"
476,"Calle Fuentespina, 33,",18,182,20,4,2101,1,"443 - Calle Fuentespina, 33",0,443,0,24,2024-02-12 13:34:45,-3.60724755,40.37941487,"(-3.60724755, 40.37941487)"
477,"Calle Hilario Herránz Establos , 36,",11,116,9,18,2102,2,362 - Hilario Herranz Establos 36,0,362,0,27,2024-02-12 13:34:45,-3.726638,40.372839,"(-3.726638, 40.372839)"
478,"Calle Rioja, 13,",21,211,17,7,2103,1,"557 - Calle Rioja, 13",0,557,0,24,2024-02-12 13:34:45,-3.58815143,40.45746674,"(-3.58815143, 40.45746674)"
479,"Francisco Suarez, 28,",05,055,9,14,2104,2,"290 - Francisco Suarez, 28",0,290,0,23,2024-02-12 13:34:45,-3.67994416,40.46437817,"(-3.67994416, 40.46437817)"
480,"Calle de López de Hoyos, 478,",16,164,1,22,2105,0,"529 - Lopez de Hoyos , 478",0,529,0,23,2024-02-12 13:34:45,-3.649843,40.47175,"(-3.649843, 40.47175)"
481,"Calle de los Emigrantes, 15,",16,163,11,16,2106,2,"530 - Calle de los Emigrantes, 15",0,530,0,27,2024-02-12 13:34:45,-3.63788349,40.4685745,"(-3.63788349, 40.4685745)"
482,"Calle de Santa Virgilia, 6,",16,164,5,18,2107,0,"531 - Calle de Santa Virgilia, 6",0,531,0,23,2024-02-12 13:34:45,-3.6450741,40.4768782,"(-3.6450741, 40.4768782)"
483,"Avenida Barranquilla, 17,",16,164,7,17,2108,0,"532 - Avenida Barranquilla, 17",0,532,0,24,2024-02-12 13:34:45,-3.6395164,40.47490194,"(-3.6395164, 40.47490194)"
484,"Avenida de San Luis, 23,",16,164,8,15,2109,2,"533 - Avenida de San Luis, 23",0,533,0,23,2024-02-12 13:34:45,-3.65511455,40.47148748,"(-3.65511455, 40.47148748)"
485,"Calle Serrano nº 32,",04,041,17,1,2110,1,106 a - 106a- Colón A,0,106 a,0,19,2024-02-12 13:34:45,-3.687807,40.424924,"(-3.687807, 40.424924)"
486,"Calle de la Isla Graciosa, 2,",08,086,6,18,2111,0,"582 -  Isla Graciosa, 2",0,582,0,24,2024-02-12 13:34:45,-3.6862657,40.49262243,"(-3.6862657, 40.49262243)"
487,"Calle de Angel Mugica, 3,",08,086,6,18,2112,0,"583 - Calle de Angel Mugica, 3",0,583,0,24,2024-02-12 13:34:45,-3.68529048,40.48468297,"(-3.68529048, 40.48468297)"
488,"Avenida Monasterio de Silos, 63A,",08,088,10,14,2113,2,"584 - Avenida Monasterio de Silos, 63A",0,584,0,24,2024-02-12 13:34:45,-3.69603345,40.50501029,"(-3.69603345, 40.50501029)"
489,"Calle Molins de Rey, 8,",08,086,14,10,2114,2,"585 - Molins de Rey, 8",0,585,0,24,2024-02-12 13:34:45,-3.69374813,40.4954662,"(-3.69374813, 40.4954662)"
490,"Calle Caldas de Estrach, 14,",08,086,8,15,2115,2,"586 - Caldas de Estrach, 14",0,586,0,23,2024-02-12 13:34:45,-3.6974725,40.4963916,"(-3.6974725, 40.4963916)"
491,"Calle de Mesena, 102,",16,165,10,14,2116,2,"534 - Calle de Mesena, 102",0,534,0,24,2024-02-12 13:34:45,-3.66340634,40.46772408,"(-3.66340634, 40.46772408)"
492,"Calle Delicias, 45,",02,026,10,9,2117,2,"273 - Calle Delicias, 45",0,273,0,19,2024-02-12 13:34:45,-3.69091831,40.40381914,"(-3.69091831, 40.40381914)"
493,"Calle Costa Brava, 16,",08,087,6,21,2118,0,"587 - Costa Brava, 16",0,587,0,27,2024-02-12 13:34:45,-3.70865744,40.49892399,"(-3.70865744, 40.49892399)"
494,"Av. del Campo de Calatrava, 17,",08,086,7,20,2119,0,"588 - Av. del Campo de Calatrava, 17",0,588,0,27,2024-02-12 13:34:45,-3.69112254,40.50052161,"(-3.69112254, 40.50052161)"
495,"Avenida Monasterio de Silos, 37,",08,088,8,16,2120,2,"589 - Avenida Monasterio de Silos, 37",0,589,0,24,2024-02-12 13:34:45,-3.70290315,40.50340494,"(-3.70290315, 40.50340494)"
496,"Calle de Ramon Power, 8,",16,163,14,13,2121,2,"535 - Calle de Ramon Power, 8",0,535,0,27,2024-02-12 13:34:45,-3.634999,40.463575,"(-3.634999, 40.463575)"
497,"Calle Cebreros, 97,",10,103,9,14,2122,2,"328 - Calle Cebreros, 97",0,328,0,23,2024-02-12 13:34:45,-3.7521917,40.4032379,"(-3.7521917, 40.4032379)"
498,"Calle Alhambra, 58,",10,103,16,7,2123,2,"329 - Calle Alhambra, 58",0,329,0,23,2024-02-12 13:34:45,-3.74445208,40.3988162,"(-3.74445208, 40.3988162)"
499,"Calle de la Duquesa de Parcent, 14,",10,104,3,20,2124,0,"330 - Calle de la Duquesa de Parcent, 14",0,330,0,23,2024-02-12 13:34:45,-3.7447281,40.39500224,"(-3.7447281, 40.39500224)"
500,"Calle Valmojado, 53,",10,104,8,16,2125,2,"331 - Calle Valmojado, 53",0,331,0,24,2024-02-12 13:34:45,-3.75757186,40.39649629,"(-3.75757186, 40.39649629)"
501,"Calle Los Yebenes, 159,",10,104,5,18,2126,0,"332 - Calle Los Yebenes, 159",0,332,0,23,2024-02-12 13:34:45,-3.75181704,40.39302789,"(-3.75181704, 40.39302789)"
502,"Avenida de Oporto, 102,",11,112,15,8,2127,2,"363 - Avenida de Oporto, 102",0,363,0,23,2024-02-12 13:34:45,-3.72987333,40.38745087,"(-3.72987333, 40.38745087)"
503,"Avenida de Oporto, 34,",11,112,16,7,2128,2,"364 - Avenida de Oporto, 34 ",0,364,0,23,2024-02-12 13:34:45,-3.72378064,40.38550735,"(-3.72378064, 40.38550735)"
504,"Calle del Boj, 5,",16,161,14,9,2129,2,"536 - Calle del Boj, 5",0,536,0,23,2024-02-12 13:34:45,-3.6180818,40.4560204,"(-3.6180818, 40.4560204)"
505,"Avenida de Machupichu, 23,",16,162,12,15,2130,2,"537 - Avenida de Machupichu, 23",0,537,0,27,2024-02-12 13:34:45,-3.62579439,40.45841466,"(-3.62579439, 40.45841466)"
506,"Calle de Haendel, 8,",16,163,11,16,2131,2,"538 - Calle de Haendel, 8",0,538,0,27,2024-02-12 13:34:45,-3.62532131,40.46275082,"(-3.62532131, 40.46275082)"
507,"Calle Illescas, 80,",10,104,2,19,2132,0,"333 - Calle Illescas, 80",0,333,0,23,2024-02-12 13:34:45,-3.7562323,40.392175,"(-3.7562323, 40.392175)"
508,"Av de la plaza de Toros , 3,",11,114,22,1,2133,1,"365 - Av de la plaza de Toros , 3",0,365,0,23,2024-02-12 13:34:45,-3.73725908,40.38537202,"(-3.73725908, 40.38537202)"
509,"Paseo de Marcelino Camacho, 53B,",11,114,20,3,2134,1,"366 - Paseo de Marcelino Camacho, 53B",0,366,0,23,2024-02-12 13:34:45,-3.744521,40.387737,"(-3.744521, 40.387737)"
510,"Avenida Alfonso XIII, 113,",05,054,15,8,2135,2,"291 - Avenida Alfonso XIII, 113",0,291,0,23,2024-02-12 13:34:45,-3.66790332,40.45866532,"(-3.66790332, 40.45866532)"
511,"Calle Pradillo, 33,",05,053,4,19,2136,0,"292 - Pradillo, 33",0,292,0,23,2024-02-12 13:34:45,-3.6717937,40.44904126,"(-3.6717937, 40.44904126)"
512,"Arturo Soria, 332,",15,159,1,22,2137,0,"494 - Arturo Soria, 332",0,494,0,23,2024-02-12 13:34:45,-3.666529,40.480694,"(-3.666529, 40.480694)"
513,"C Juan Ignacio Luca de Tena, 13,",20,208,12,15,2138,2,"516 - Juan Ignacio Luca de Tena, 13",0,516,0,27,2024-02-12 13:34:45,-3.63110255,40.44796778,"(-3.63110255, 40.44796778)"
514,"Eugenia de Montijo, 57,",11,115,5,10,2139,2,"368 - Eugenia de Montijo, 57",0,368,0,15,2024-02-12 13:34:45,-3.74706068,40.3791024,"(-3.74706068, 40.3791024)"
515,"Plaza de la Parroquia , 20,",11,115,8,15,2140,2,"369 - Plaza de la Parroquia , 20",0,369,0,23,2024-02-12 13:34:45,-3.7415832,40.3802446,"(-3.7415832, 40.3802446)"
516,"Calle de Avefria, 26,",11,115,8,15,2141,2,"370 - Calle de Avefria, 26",0,370,0,23,2024-02-12 13:34:45,-3.7308025,40.38386939,"(-3.7308025, 40.38386939)"
517,"Calle Maria de Maeztu, 50,",08,087,9,18,2142,2,"590 - María de Maeztu, 50",0,590,0,27,2024-02-12 13:34:45,-3.72757227,40.49093014,"(-3.72757227, 40.49093014)"
518,"Calle San Mariano, 58,",20,207,11,16,2143,2,"517 - Calle San Mariano, 58",0,517,0,27,2024-02-12 13:34:45,-3.61190481,40.44175279,"(-3.61190481, 40.44175279)"
519,"Calle de Tampico, 71,",20,208,15,8,2144,2,"518 - Calle de Tampico, 71",0,518,0,23,2024-02-12 13:34:45,-3.635345,40.444569,"(-3.635345, 40.444569)"
520,"Calle Joaquin Turina, 49,",11,116,9,18,2145,2,"371 - Calle Joaquin Turina, 49",0,371,0,27,2024-02-12 13:34:45,-3.76182,40.372458,"(-3.76182, 40.372458)"
521,"Calle Lonja de la Seda, 33,",11,116,7,16,2146,0,"372 - Calle Lonja de la Seda, 33",0,372,0,23,2024-02-12 13:34:45,-3.76158263,40.36612215,"(-3.76158263, 40.36612215)"
522,"Calle Salvador Allende, 26,",11,116,5,18,2147,0,"373 - Calle Salvador Allende, 26",0,373,0,23,2024-02-12 13:34:45,-3.75787005,40.36277848,"(-3.75787005, 40.36277848)"
523,"Calle del Dinero, 38,",11,116,12,14,2148,2,"374 - Calle del Dinero, 38",0,374,0,27,2024-02-12 13:34:45,-3.7501466,40.3625707,"(-3.7501466, 40.3625707)"
524,"Calle Calderilla, 4,",11,116,25,2,2149,1,"375 - Calle Calderilla, 4",0,375,0,27,2024-02-12 13:34:45,-3.7386603,40.3651497,"(-3.7386603, 40.3651497)"
525,"Av.Ventisquero de la Condesa, 39,",08,087,9,10,2150,2,"591 - Av.Ventisquero de la Condesa, 39",0,591,0,19,2024-02-12 13:34:45,-3.71622921,40.49108225,"(-3.71622921, 40.49108225)"
526,"Calle de Gloria Fuertes, 181,",08,087,16,11,2151,2,"592 - Calle de Gloria Fuertes, 181",0,592,0,27,2024-02-12 13:34:45,-3.7249527,40.4956969,"(-3.7249527, 40.4956969)"
527,"Calle del Pinzon, 1A,",11,114,8,16,2152,2,"376 - Calle del Pinzon, 1A",0,376,0,24,2024-02-12 13:34:45,-3.7405438,40.39229225,"(-3.7405438, 40.39229225)"
528,"Av Abrantes, 55,",11,117,14,4,2153,1,"377 - Av Abrantes, 55",0,377,0,18,2024-02-12 13:34:45,-3.72783615,40.38091762,"(-3.72783615, 40.38091762)"
529,"Calle de Mota del Cuervo, 70,",16,163,6,18,2154,0,"539 - Calle de Mota del Cuervo, 70",0,539,0,24,2024-02-12 13:34:45,-3.63135715,40.4648762,"(-3.63135715, 40.4648762)"
530,"Calle Seseña, 93,",10,104,8,16,2155,2,"334 - Seseña, 93",0,334,0,24,2024-02-12 13:34:45,-3.76815631,40.39497294,"(-3.76815631, 40.39497294)"
531,"Calle Cardaño, 10,",10,105,11,13,2156,2,"335 - Calle Cardaño, 10",0,335,0,24,2024-02-12 13:34:45,-3.77057541,40.39659757,"(-3.77057541, 40.39659757)"
532,"Calle Troya, 11,",20,207,11,13,2157,2,"519 - Calle Troya, 11",0,519,0,24,2024-02-12 13:34:45,-3.61191521,40.43699597,"(-3.61191521, 40.43699597)"
533,"Calle Eugenia de Montijo, 83,",11,116,13,11,2158,2,"378 - Eugenia de Montijo, 83",0,378,0,24,2024-02-12 13:34:45,-3.7509733,40.37562288,"(-3.7509733, 40.37562288)"
534,"Calle Antonia Rodriguez Sacristan, 4,",11,116,5,19,2159,0,"379 - Antonia Rodriguez Sacristan, 4",0,379,0,24,2024-02-12 13:34:45,-3.74765739,40.37313777,"(-3.74765739, 40.37313777)"
535,"Calle Caleruega, 18,",15,159,4,20,2160,0,"495 - Calle Caleruega, 18",0,495,0,24,2024-02-12 13:34:45,-3.670588,40.478746,"(-3.670588, 40.478746)"
536,"Calle Islas Cies, 27,",08,083,5,19,2161,0,"593 - Islas Cies, 27",0,593,0,24,2024-02-12 13:34:45,-3.71869067,40.48027409,"(-3.71869067, 40.48027409)"
537,"Calle Pedro Rico, 49,",08,085,8,16,2162,2,"594 - Calle Pedro Rico, 49",0,594,0,24,2024-02-12 13:34:45,-3.703918,40.48194,"(-3.703918, 40.48194)"
538,"Avenida de Betanzos, 68,",08,084,8,16,2163,2,"595 - Avenida de Betanzos, 68",0,595,0,24,2024-02-12 13:34:45,-3.7132206,40.48178815,"(-3.7132206, 40.48178815)"
539,"Calle Ramon Gomez de la Serna, 37,",08,083,3,21,2164,0,"596 - Ramon Gomez de la Serna, 37",0,596,0,24,2024-02-12 13:34:45,-3.72382554,40.48432751,"(-3.72382554, 40.48432751)"
540,"Calle de Dulce Chacon, sn,",16,166,7,17,2165,0,"540 - Calle de Dulce Chacon, sn",0,540,0,24,2024-02-12 13:34:45,-3.6636484,40.4845596,"(-3.6636484, 40.4845596)"
541,"Calle Oliva de Plasencia, 1,",10,107,11,13,2166,2,"336 - Calle Oliva de Plasencia, 1",0,336,0,24,2024-02-12 13:34:45,-3.77915183,40.37850071,"(-3.77915183, 40.37850071)"
542,"Calle Valmojado, 295,",10,104,17,1,2167,1,"337 - Calle Valmojado, 295",0,337,0,18,2024-02-12 13:34:45,-3.76048923,40.38614104,"(-3.76048923, 40.38614104)"
543,"Calle Guareña, 13,",10,107,12,6,2168,2,"338 - Calle Guareña, 13",0,338,0,18,2024-02-12 13:34:45,-3.7653391035306005,40.386362337060476,"(-3.7653391035306005, 40.386362337060476)"
544,"Avenida de las Aguilas , 110,",10,107,11,13,2169,2,"339 - Avenida de las Aguilas , 110",0,339,0,24,2024-02-12 13:34:45,-3.78061952,40.38132642,"(-3.78061952, 40.38132642)"
545,"Calle de la Foresta, 21,",08,086,11,12,2170,2,"597 - Calle de la Foresta, 8",0,597,0,23,2024-02-12 13:34:45,-3.66777681,40.49853277,"(-3.66777681, 40.49853277)"
546,"Calle de José Gutiérrez Maroto, 33,",18,183,12,15,2171,2,"445 - Calle de José Gutiérrez Maroto, 33",0,445,0,27,2024-02-12 13:34:45,-3.60503564,40.36334587,"(-3.60503564, 40.36334587)"
547,"Calle La Cabrera, sn,",08,083,9,18,2172,2,"599 - Calle La Cabrera, sn",0,599,0,27,2024-02-12 13:34:45,-3.71920443,40.47223267,"(-3.71920443, 40.47223267)"
548,"Calle Fuente de Lima, 10,",10,107,15,8,2173,2,"343 - Calle Fuente de Lima, 10",0,343,0,23,2024-02-12 13:34:45,-3.78339301,40.38358975,"(-3.78339301, 40.38358975)"
549,"Calle Ocaña, 103,",10,104,20,3,2174,1,"344 - Calle Ocaña, 103",0,344,0,23,2024-02-12 13:34:45,-3.75292035,40.38586273,"(-3.75292035, 40.38586273)"
550,"Paseo de Juan XXIII, 24,",09,093,14,13,2175,2,"313 - Paseo de Juan XXIII, 24",0,313,0,27,2024-02-12 13:34:45,-3.7169359,40.448084,"(-3.7169359, 40.448084)"
551,"Avenida de Valladolid, 47G, 47,",09,091,10,17,2176,2,"314 - Avenida de Valladolid, 47G",0,314,0,27,2024-02-12 13:34:45,-3.73068,40.42966,"(-3.73068, 40.42966)"
552,"Calle de Caroli, 1,",09,097,6,17,2177,0,"315 - Calle de Caroli, 1",0,315,0,23,2024-02-12 13:34:45,-3.784627,40.45862,"(-3.784627, 40.45862)"
553,"Calle Antonio Machado, sn,,",09,094,12,7,2178,2,"316 - Calle Antonio Machado, sn",0,316,0,19,2024-02-12 13:34:45,-3.71995383,40.46439687,"(-3.71995383, 40.46439687)"
554,"Calle Antonio Machado, 30,",09,094,8,19,2179,0,"317 - Calle Antonio Machado, 30",0,317,0,27,2024-02-12 13:34:45,-3.71921712,40.46826955,"(-3.71921712, 40.46826955)"
555,"Calle Fuente del Tiro, 27,",10,107,10,14,2180,2,"345 - Fuente del Tiro, 27",0,345,0,24,2024-02-12 13:34:45,-3.7798001,40.38308791,"(-3.7798001, 40.38308791)"
556,"Calle del Pico Chilegua, 3,",18,181,15,9,2182,2,"449 - Calle del Pico Chilegua, 3",0,449,0,24,2024-02-12 13:34:45,-3.61869106,40.37286701,"(-3.61869106, 40.37286701)"
557,"Calle Camino de las Hormigueras, 161,",18,181,12,12,2183,2,"450 - Calle Camino de las Hormigueras, 161",0,450,0,24,2024-02-12 13:34:45,-3.6370762,40.3762555,"(-3.6370762, 40.3762555)"
558,"Clara del Rey, 6,",05,052,15,9,2184,2,"294 - Clara del Rey, 6",0,294,0,24,2024-02-12 13:34:45,-3.672339,40.440944,"(-3.672339, 40.440944)"
559,"Avenida del Camino de Santiago, 4,",08,086,10,13,2185,2,"604 - Avenida del Camino de Santiago, 4",0,604,0,23,2024-02-12 13:34:45,-3.66955215,40.50910428,"(-3.66955215, 40.50910428)"
560,"Calle de Jose de Cadalso, 62,",10,107,16,11,2186,2,"348 - Calle de Jose de Cadalso, 62",0,348,0,26,2024-02-12 13:34:45,-3.77024778,40.37959145,"(-3.77024778, 40.37959145)"
561,"Calle Enrique Garcia Alvarez, 5,",18,182,14,13,2187,2,"438 - Calle Enrique Garcia Alvarez, 5",0,438,0,27,2024-02-12 13:34:45,-3.6140607,40.3804482,"(-3.6140607, 40.3804482)"
562,"Calle de La Granja de San Ildefonso, 14,",18,183,12,15,2188,2,"451 - Calle de La Granja de San Ildefonso, 14",0,451,0,27,2024-02-12 13:34:45,-3.62283116,40.36813427,"(-3.62283116, 40.36813427)"
563,"Avenida de Las Suertes, 15,",18,183,6,17,2189,0,"452 - Avenida de Las Suertes, 15",0,452,0,23,2024-02-12 13:34:45,-3.6078539,40.3713613,"(-3.6078539, 40.3713613)"
564,"Avenida del Ensanche de Vallecas, 9,",18,183,17,10,2190,2,"453 - Avenida del Ensanche de Vallecas, 9",0,453,0,27,2024-02-12 13:34:45,-3.61253028,40.37043968,"(-3.61253028, 40.37043968)"
565,"Calle Gran Via del Sureste, 22,",18,183,8,19,2191,0,"454 - Gran Via del Sureste, 22",0,454,0,27,2024-02-12 13:34:45,-3.5897045,40.3631604,"(-3.5897045, 40.3631604)"
566,"Paseo de la Chopera,33,Comunidad de Madrid España",02,023,8,15,2205,2,"267 - Paseo de la Chopera, 33",0,267,0,23,2024-02-12 13:34:45,-3.7003996647238746,40.39500000000003,"(-3.7003996647238746, 40.39500000000003)"
567,"Calle Rafaela Ybarra, 22,Comunidad de Madrid España",12,126,14,9,2207,2,"391 - Calle Rafaela Ybarra, 22",0,391,0,22,2024-02-12 13:34:45,-3.711296220901499,40.3817026328731,"(-3.711296220901499, 40.3817026328731)"
568,"c/ Ginzo de Limia, 47,",08,084,9,14,2214,2,"2200 - 580 - Ginzo de Limia, 47",0,2200,0,23,2024-02-12 13:34:45,-3.706904,40.48337,"(-3.706904, 40.48337)"
569,"Paseo de la Castellana nº 122,",05,051,16,7,2224,2,150 - Castellana frente a Hermanos Pinzón,0,150,0,23,2024-02-12 13:34:45,-3.6908,40.4491,"(-3.6908, 40.4491)"
570,"Paseo de la Castellana nº 164,Comunidad de Madrid España",05,055,17,6,2225,1,157 - Castellana 164.,0,157,0,23,2024-02-12 13:34:45,-3.6894151,40.4591366,"(-3.6894151, 40.4591366)"
571,"Guetaria , 84b,",12,121,17,7,2226,1,395b - 395 - Guetaria  84b,0,395b,0,24,2024-02-12 13:34:45,-3.71569102,40.36916772,"(-3.71569102, 40.36916772)"
572,"548 - Eduardo Mazón 1,",16,161,14,9,2233,2,548 - Eduardo Mazón 1,0,548,0,23,2024-02-12 13:34:45,-3.6154157,40.4521484,"(-3.6154157, 40.4521484)"
573,"Santa Rita 1,",05,052,7,16,2234,0,293 - Santa Rita 1,0,293,0,23,2024-02-12 13:34:45,-3.6682882,40.4457928,"(-3.6682882, 40.4457928)"
574,"Avenida de NIza 67,",20,205,13,10,2235,2,520. - 520 - Avenida de NIza 67,0,520.,0,23,2024-02-12 13:34:45,-3.60811578,40.4342806,"(-3.60811578, 40.4342806)"
575,"Amposta s/n (esquina Arcos de Jalón),",20,204,7,16,2236,0,509. - 509 - Amposta s/n (esquina Arcos de Jalón),0,509.,0,23,2024-02-12 13:34:45,-3.61865045,40.42218951,"(-3.61865045, 40.42218951)"
576,"Bahía de Cádiz, 2,",21,215,14,9,2237,2,"558 - Bahía de Cádiz, 2",0,558,0,23,2024-02-12 13:34:45,-3.593712,40.461137,"(-3.593712, 40.461137)"
577,"Cristo del Gran Poder, 27,",21,214,10,13,2238,2,"561 - Cristo del Gran Poder, 27",0,561,0,23,2024-02-12 13:34:45,-3.585751,40.472048,"(-3.585751, 40.472048)"
578,"Calle Tomillar, 40,",21,211,11,16,2239,2,"562 - Tomillar, 40",0,562,0,27,2024-02-12 13:34:45,-3.5844146,40.4630993,"(-3.5844146, 40.4630993)"
579,"560 - Playa de Zarauz, 16,",21,214,2,21,2240,0,"560 - Playa de Zarauz, 16",0,560,0,23,2024-02-12 13:34:45,-3.5906847,40.4731404,"(-3.5906847, 40.4731404)"
580,"5568 - Avda. del Partenón, 6,",21,215,13,14,2241,2,"568 - Avda. del Partenón, 6",0,568,0,27,2024-02-12 13:34:45,-3.6178336,40.4632802,"(-3.6178336, 40.4632802)"
581,"Paseo Alberto Palacios, 42,",17,171,6,16,2243,0,"405 - Alberto Palacios, 42",0,405,0,22,2024-02-12 13:34:45,-3.7129039644180373,40.3449259916087,"(-3.7129039644180373, 40.3449259916087)"
582,"Calle de Eduardo Maristany, 7,",17,173,17,10,2244,2,"401 - Eduardo Maristany, 7",0,401,0,27,2024-02-12 13:34:45,-3.683127,40.353285,"(-3.683127, 40.353285)"
583,"Calle Cifuentes, 5,",17,175,9,14,2245,2,"406 - Calle Cifuentes, 5",0,406,0,23,2024-02-12 13:34:45,-3.6960817,40.3486,"(-3.6960817, 40.3486)"
584,"Calle de Auñón, 16,",17,173,7,15,2246,2,"403 - Auñón, 16",0,403,0,23,2024-02-12 13:34:45,-3.6775242,40.3504944,"(-3.6775242, 40.3504944)"
585,"PASEO DE LOS MELANCÓLICOS 73,",02,021,12,10,2247,2,280 - PASEO DE LOS MELANCÓLICOS 73,0,280,0,23,2024-02-12 13:34:45,-3.718569,40.401782,"(-3.718569, 40.401782)"
586,"Calle Albox 33,",11,115,11,11,2248,2,367-2 - 367 - Albox 33,0,367-2,0,23,2024-02-12 13:34:45,-3.73984,40.373972,"(-3.73984, 40.373972)"
587,"Paseo de los Jesuitas 4,",10,102,4,19,2249,0,325b - 325 - Paseo de los Jesuitas 4,0,325b,0,23,2024-02-12 13:34:45,-3.7305543,40.4106918,"(-3.7305543, 40.4106918)"
588,"Calle Sierra de Atapuerca, 19,",08,086,5,18,2250,0,"578 - Sierra de Atapuerca, 19",0,578,0,23,2024-02-12 13:34:45,-3.67042488,40.50292982,"(-3.67042488, 40.50292982)"
589,"Calle Puerto de Porzuna, 34,",18,181,21,2,2251,1,"446 - Puerto de Porzuna 34, ",0,446,0,23,2024-02-12 13:34:45,-3.6236297,40.373826,"(-3.6236297, 40.373826)"
590,"Parque Eugenia de Montijo, 2,",11,114,11,13,2252,2,"382-2 - 382 -Parque Eugenia de Montijo, 2",0,382-2,0,24,2024-02-12 13:34:45,-3.7545822,40.3783501,"(-3.7545822, 40.3783501)"
591,"Transversal Sexta, 17,",17,171,9,15,2254,2,"410 - Transversal Sexta ,17",0,410,0,24,2024-02-12 13:34:45,-3.6992665,40.3325463,"(-3.6992665, 40.3325463)"
592,"579 - Maria Tubau,",08,086,17,7,2256,1,579 - Maria Tubau,0,579,0,24,2024-02-12 13:34:45,-3.6717035870335635,40.51399230680476,"(-3.6717035870335635, 40.51399230680476)"
593,"602 - Calle del Monasterio de Sobrado, 6,",08,088,5,19,2257,0,"602 - Calle del Monasterio de Sobrado, 6",0,602,0,24,2024-02-12 13:34:45,-3.692837,40.5093225,"(-3.692837, 40.5093225)"
594,"Calle de Úbeda,  27,",08,083,13,11,2258,2,"600 - Ubeda,  27",0,600,0,24,2024-02-12 13:34:45,-3.7149566,40.4825507,"(-3.7149566, 40.4825507)"
595,"566 - Avenida de Logroño, 315,",21,214,10,14,2259,2,"566 - Avenida de Logroño, 315",0,566,0,24,2024-02-12 13:34:45,-3.5815033,40.4703472,"(-3.5815033, 40.4703472)"
596,"565- Playa de Riazor, 66,",21,214,19,5,2260,1,"565 - Playa de Riazor, 66",0,565,0,24,2024-02-12 13:34:45,-3.5838869,40.47563573,"(-3.5838869, 40.47563573)"
597,"467 -  Calle Villardondiego frente,  32,",19,191,10,14,2261,2,467 -  Calle Villardondiego  32,0,467,0,24,2024-02-12 13:34:45,-3.6084888,40.4062361,"(-3.6084888, 40.4062361)"
598,"469 - Ladera de los Almendros, 6,",19,192,13,11,2262,2,"469 - Ladera de los Almendros, 6",0,469,0,24,2024-02-12 13:34:45,-3.62299,40.40343,"(-3.62299, 40.40343)"
599,"470 - Avenida Real, 3,",19,191,13,5,2263,1,"470 - Avenida Real, 3",0,470,0,18,2024-02-12 13:34:45,-3.6063672,40.4021519,"(-3.6063672, 40.4021519)"
600,"471 - Calle Molino Viejo frente , 14,",19,193,5,13,2264,0,"471 - Molino Viejo frente , 14",0,471,0,18,2024-02-12 13:34:45,-3.60666,40.396301,"(-3.60666, 40.396301)"
601,"271 - Calle Amaltea , 1,",02,025,4,20,2265,0,"271 - Calle Amaltea , 1",0,271,0,24,2024-02-12 13:34:45,-3.68317,40.394706,"(-3.68317, 40.394706)"
602,"Calle Villablanca 7,",19,191,14,9,2266,2,466  - Villablanca  7,0,466,0,23,2024-02-12 13:34:45,-3.60783265,40.40894698,"(-3.60783265, 40.40894698)"
603,"Paseo de Juan Antonio Vallejo Nájera Botas, 28,",02,022,7,16,2267,0,"275 - Juan Antonio Vallejo Nájera Botas, 25",0,275,0,23,2024-02-12 13:34:45,-3.7082123,40.4020545,"(-3.7082123, 40.4020545)"
604," Avenida de la Aurora Boreal, 19,",19,193,6,17,2268,0,"475 - Aurora Boreal, 19",0,475,0,23,2024-02-12 13:34:45,-3.603668,40.399236,"(-3.603668, 40.399236)"
605,"Calle Méndez Alvaro, 44,",02,027,6,17,2269,0,"274  - Méndez Alvaro, 73",0,274,0,23,2024-02-12 13:34:45,-3.68134346,40.39675755,"(-3.68134346, 40.39675755)"
606,"605 - Calle Nuria 26,",08,087,5,19,2270,0,605 - Calle Nuria 26,0,605,0,24,2024-02-12 13:34:45,-3.704883,40.491644,"(-3.704883, 40.491644)"
607,"Avenida Arcentales S/N,",20,205,9,15,2271,2,522 - Avenida Arcentales S/N,0,522,0,24,2024-02-12 13:34:45,-3.60097542,40.43333298,"(-3.60097542, 40.43333298)"
608,"calle Paseo Ginebra,",20,205,5,19,2272,0,521 - Paseo Ginebra,0,521,0,24,2024-02-12 13:34:45,-3.6048181,40.423893,"(-3.6048181, 40.423893)"
609,"Parador de Santa Lucía, 8,",20,207,14,10,2273,2,"508. - 508 - Parador de Santa Lucía, 8",0,508.,0,24,2024-02-12 13:34:45,-3.609553,40.449095,"(-3.609553, 40.449095)"
