,address,code_district,code_suburb,dock_bikes,free_bases,id,light,name,no_available,number,reservations_count,total_bases,date_time,longitude,latitude,coordinates
0,"Calle María de las Mercedes de Borbón, 214,",16,166,1,22,2365,0,262 - María de las Mercedes de Borbón B,0,262,0,23,2024-02-18 15:04:20,-3.620114,40.4928683,"(-3.620114, 40.4928683)"
1,"Calle María de las Mercedes de Borbón, 98,",16,166,8,15,2366,2,611 - María de las Mercedes de Borbón A,0,611,0,23,2024-02-18 15:04:20,-3.6121068531215528,40.490908297996654,"(-3.6121068531215528, 40.490908297996654)"
2,"CalleFrancisco Balseiro, 2 ,Comunidad de Madrid España",06,061,7,17,2362,0,237 - Acueducto de Amaniel,0,237,0,24,2024-02-18 15:04:20,-3.7102736,40.4516819,"(-3.7102736, 40.4516819)"
3,"para borrar,",16,166,0,0,1404,3,0 - para borrar,1,0,0,0,2024-02-18 15:04:20,-3.62018,40.49291,"(-3.62018, 40.49291)"
4,"Calle Miguel Moya nº 1,",01,015,7,20,1406,0,2 - Metro Callao,0,2,0,27,2024-02-18 15:04:20,-3.70569,40.4204,"(-3.70569, 40.4204)"
5,"Plaza del Conde del Valle de Súchil nº 4,",07,072,15,4,1407,1,3 - Plaza Conde Suchil,0,3,0,19,2024-02-18 15:04:20,-3.7072537,40.4303223,"(-3.7072537, 40.4303223)"
6,"Calle Manuela Malasaña nº 3,",01,015,14,13,1408,2,4 - Malasaña,0,4,0,27,2024-02-18 15:04:20,-3.7025,40.4286259,"(-3.7025, 40.4286259)"
7,"Calle Castillo de Jaca, nº14 ,",08,086,22,1,2352,1,"603 - Castiello de Jaca, 14",0,603,0,23,2024-02-18 15:04:20,-3.6782027,40.5091982,"(-3.6782027, 40.5091982)"
8,"Bardegueral nº16,Comunidad de Madrid España",09,097,0,23,2360,0,610 - Bardegueral,0,610,0,23,2024-02-18 15:04:20,-3.7719097,40.4501721,"(-3.7719097, 40.4501721)"
9,"Calle Fuencarral nº 106,",01,014,8,19,1409,0,5 - Fuencarral,0,5,0,27,2024-02-18 15:04:20,-3.7021354,40.4285212,"(-3.7021354, 40.4285212)"
10,"Calle Hortaleza nº 63,",01,014,5,14,1410,0,6 - Colegio Arquitectos,0,6,0,19,2024-02-18 15:04:20,-3.698447,40.424148,"(-3.698447, 40.424148)"
11,"Calle Hortaleza nº 75,",01,014,10,9,1411,2,7 - Hortaleza,0,7,0,19,2024-02-18 15:04:20,-3.6977715,40.4251906,"(-3.6977715, 40.4251906)"
12,"Plaza de Alonso Martínez nº 6,",07,074,15,9,1412,2,8 - Alonso Martínez,0,8,0,24,2024-02-18 15:04:20,-3.6954403,40.4278682,"(-3.6954403, 40.4278682)"
13,"Plaza de San Miguel nº 10,",01,011,12,12,1413,2,9 - Plaza de San Miguel,0,9,0,24,2024-02-18 15:04:20,-3.7095084,40.4156057,"(-3.7095084, 40.4156057)"
14,"Calle Marqués de la Ensenada (junto a edif, Centro Colón),",01,014,7,16,1414,0,10 - Marqués de la Ensenada,0,10,0,23,2024-02-18 15:04:20,-3.692104,40.425403,"(-3.692104, 40.425403)"
15,"Calle San Andrés nº 18 - 20,",01,015,4,19,1415,0,11 - Plaza del Dos de Mayo,0,11,0,23,2024-02-18 15:04:20,-3.7036,40.427,"(-3.7036, 40.427)"
16,"Calle San Bernardo nº 85 - 87,",01,015,17,10,1416,2,12 - San Hermenegildo,0,12,0,27,2024-02-18 15:04:20,-3.7061406,40.4284667,"(-3.7061406, 40.4284667)"
17,"Avda del Ensanche de Vallecas, 80,",18,183,2,25,2340,0,"448 - Avda del Ensanche de Vallecas, 80",0,448,0,27,2024-02-18 15:04:20,-3.599352,40.363376,"(-3.599352, 40.363376)"
18,"Calle de los Pinillas, 19,",19,192,7,20,2341,0,"472 - Calle de los Pinillas, 19",0,472,0,27,2024-02-18 15:04:20,-3.6211485,40.3987974,"(-3.6211485, 40.3987974)"
19,"473 - Calle de Vilablanca, frente  85,",19,191,14,13,2342,2,"473 - Calle de Villablanca, frente  85",0,473,0,27,2024-02-18 15:04:20,-3.59888007,40.40500033,"(-3.59888007, 40.40500033)"
20,"Calle San Cipriano, 124,",19,193,13,14,2343,2,"474 - Calle San Cipriano, 124",0,474,0,27,2024-02-18 15:04:20,-3.596875,40.402255,"(-3.596875, 40.402255)"
21,"541- Avda. Gran Vía de Hortaleza, 68,",16,163,2,21,2347,0,"541 - Avda. Gran Vía de Hortaleza, 68",0,541,0,23,2024-02-18 15:04:20,-3.6468591,40.4682706,"(-3.6468591, 40.4682706)"
22,"546 - Calle Andorra, 6,",16,163,9,14,2348,2,"546 - Calle Andorra, 6",0,546,0,23,2024-02-18 15:04:20,-3.6467519,40.4628976,"(-3.6467519, 40.4628976)"
23,"550 - Calle del Príncipe Carlos, 54,",16,166,0,23,2349,0,"550 - Calle del Príncipe Carlos, 54",0,550,0,23,2024-02-18 15:04:20,-3.656674,40.4941108,"(-3.656674, 40.4941108)"
24,"553 - Calle de María de Portugal, 24,",16,166,4,19,2350,0,"553 - Calle de María de Portugal, 24",0,553,0,23,2024-02-18 15:04:20,-3.658921,40.499909,"(-3.658921, 40.499909)"
25,"Calle Antonio de Cabezón, s/n (Estacion Cercanías Fuencarral),",08,086,6,17,2351,0,601 - Estación de tren de Fuencarral,0,601,0,23,2024-02-18 15:04:20,-3.6824687,40.5015588,"(-3.6824687, 40.5015588)"
26,"Paseo de las Yeserías, 15,",02,022,7,16,2333,0,"276 - Paseo de las Yeserías, 15",0,276,0,23,2024-02-18 15:04:20,-3.7099166,40.39900539,"(-3.7099166, 40.39900539)"
27,"Calle Illescas, 1 ,",10,104,17,10,2334,2,340 - Illescas - Seseña,0,340,0,27,2024-02-18 15:04:20,-3.7656976,40.3970983,"(-3.7656976, 40.3970983)"
28,"Calle Osa de la Vega, 1 ,",10,107,6,17,2335,0,342 - Osa de la Vega - Rafael Finat,0,342,0,23,2024-02-18 15:04:20,-3.773381,40.374979,"(-3.773381, 40.374979)"
29,"381 - Alfredo Aleix, 7,",11,116,7,17,2337,0,"381 - Alfredo Aleix, 7",0,381,0,24,2024-02-18 15:04:20,-3.7553916,40.3684767,"(-3.7553916, 40.3684767)"
30,"444 - Calle de Valderrobollo, 18,",18,183,15,8,2339,2,"444 - Calle de Valderrebollo, 18",0,444,0,23,2024-02-18 15:04:20,-3.6276352,40.3743481,"(-3.6276352, 40.3743481)"
31,"Calle Conde Duque nº 22,",01,015,16,7,1417,2,13 - Conde Duque,0,13,0,23,2024-02-18 15:04:20,-3.7105,40.4273,"(-3.7105, 40.4273)"
32,"Ventura Rodríguez, 3,",09,092,20,7,1418,1,14 - Ventura Rodríguez,0,14,0,27,2024-02-18 15:04:20,-3.7133069,40.4260425,"(-3.7133069, 40.4260425)"
33,"Calle norte nº 10,",01,015,3,16,1419,0,15 - Norte,0,15,0,19,2024-02-18 15:04:20,-3.7074453,40.4262383,"(-3.7074453, 40.4262383)"
34,"Calle San Bernardo nº 22,",01,015,8,11,1420,2,16 - San Bernardo,0,16,0,19,2024-02-18 15:04:20,-3.7074808485065,40.4229374,"(-3.7074808485065, 40.4229374)"
35,"Plaza de Carlos Cambronero nº 2,",01,015,17,6,1421,1,17 - Plaza de Carlos Cambronero,0,17,0,23,2024-02-18 15:04:20,-3.704166,40.423126,"(-3.704166, 40.423126)"
36,"Plaza de Pedro Zerolo nº 20,",01,014,13,11,1422,2,18 - Plaza de Pedro Zerolo,0,18,0,24,2024-02-18 15:04:20,-3.6996776,40.4209251,"(-3.6996776, 40.4209251)"
37,"Calle Prim nº 4,",01,014,17,11,1423,2,"19 - Calle Prim, 2",0,19,0,28,2024-02-18 15:04:20,-3.6954983,40.4218616,"(-3.6954983, 40.4218616)"
38,"Calle Alcalá nº 48,",01,013,7,20,1424,0,20a - Banco de España,0,20a,0,27,2024-02-18 15:04:20,-3.6952465,40.4188076,"(-3.6952465, 40.4188076)"
39,"Calle Jacometrezo nº 3,",01,016,0,0,1425,3,22 - Jacometrezo,1,22,0,3,2024-02-18 15:04:20,-3.7065376,40.4200783,"(-3.7065376, 40.4200783)"
40,"Plaza de Santo Domingo nº 1,",01,011,2,22,1426,0,23 - Santo Domingo,0,23,0,24,2024-02-18 15:04:20,-3.708249,40.4202595,"(-3.708249, 40.4202595)"
41,"Calle Carlos III nº 1,",01,011,15,3,1427,1,24 - Palacio de Oriente,0,24,0,18,2024-02-18 15:04:20,-3.7106495,40.417767,"(-3.7106495, 40.417767)"
42,"Plaza de Celenque nº 1,",01,016,9,15,1428,2,25a - Plaza de Celenque A,0,25a,0,24,2024-02-18 15:04:20,-3.7057791,40.4173703,"(-3.7057791, 40.4173703)"
43,"Plaza de Celenque nº 1,",01,016,13,11,1429,2,25b - Plaza de Celenque B,0,25b,0,24,2024-02-18 15:04:20,-3.7058976,40.4173687,"(-3.7058976, 40.4173687)"
44,"Plaza de las Salesas nº 7,",01,014,17,10,1430,2,26 - Plaza de las Salesas,0,26,0,27,2024-02-18 15:04:20,-3.6945,40.4239,"(-3.6945, 40.4239)"
45,"Calle Jesús nº 6,",01,013,7,20,1431,0,27 - Huertas,0,27,0,27,2024-02-18 15:04:20,-3.6957,40.4133,"(-3.6957, 40.4133)"
46,"Calle Alcalá nº 28,",01,013,9,9,1432,2,28 - Metro Sevilla,0,28,0,18,2024-02-18 15:04:20,-3.6984583,40.41806,"(-3.6984583, 40.41806)"
47,"Calle del Marqués de Cubas nº 25,",01,013,18,5,1433,1,29 - Marqués de Cubas,0,29,0,23,2024-02-18 15:04:20,-3.6957434,40.4163838,"(-3.6957434, 40.4163838)"
48,"Calle Pavía nº 4,",01,011,19,8,1434,1,30 - San Quintín,0,30,0,27,2024-02-18 15:04:20,-3.711504,40.4192095,"(-3.711504, 40.4192095)"
49,"Calle Mayor nº 16,",01,016,10,17,1435,2,31 - Calle Mayor,0,31,0,27,2024-02-18 15:04:20,-3.7068969,40.4163638,"(-3.7068969, 40.4163638)"
50,"Plaza de la Provincia (esquina calle Gerona),",01,016,8,10,1436,2,32 - Plaza de la Provincia,0,32,0,18,2024-02-18 15:04:20,-3.7061032,40.4150099,"(-3.7061032, 40.4150099)"
51,"Calle Carretas nº 3,",01,016,11,12,1437,2,33 - Puerta del Sol,0,33,0,23,2024-02-18 15:04:20,-3.7033305,40.4165873,"(-3.7033305, 40.4165873)"
52,"Plaza de Jacinto Benavente,",01,016,12,12,1438,2,34 - Jacinto Benavente,0,34,0,24,2024-02-18 15:04:20,-3.7036825,40.4146755,"(-3.7036825, 40.4146755)"
53,"Plaza del Cordón nº1,",01,011,12,12,1439,2,35 - Plaza del Cordón,0,35,0,24,2024-02-18 15:04:20,-3.7103285,40.4141931,"(-3.7103285, 40.4141931)"
54,"Plaza de Ramales nº1,",01,011,20,4,1440,1,36 - Plaza Ramales,0,36,0,24,2024-02-18 15:04:20,-3.71183,40.4168,"(-3.71183, 40.4168)"
55,"Plaza de San Francisco,",01,011,12,12,1441,2,37 - Plaza de San Francisco,0,37,0,24,2024-02-18 15:04:20,-3.714113,40.4108,"(-3.714113, 40.4108)"
56,"Carrera de San Francisco nº 2,",01,011,24,3,1442,1,38 - Plaza de los Carros,0,38,0,27,2024-02-18 15:04:20,-3.7115898,40.4113586,"(-3.7115898, 40.4113586)"
57,"Plaza de la Cebada nº 3,",01,011,28,3,1443,1,39 - Plaza de la Cebada,0,39,0,31,2024-02-18 15:04:20,-3.7088337,40.4112744,"(-3.7088337, 40.4112744)"
58,"Plaza del Conde de Romanones nº 2,",01,012,11,7,1444,2,40 - Conde de Romanones,0,40,0,18,2024-02-18 15:04:20,-3.7047949666162405,40.413778406369765,"(-3.7047949666162405, 40.413778406369765)"
59,"Calle Atocha nº 56,",01,012,14,5,1445,1,41 - Metro Antón Martín,0,41,0,19,2024-02-18 15:04:20,-3.6991147,40.4122047,"(-3.6991147, 40.4122047)"
60,"Calle Santa Isabel 32,",01,012,18,9,1446,2,42 - Santa Isabel,0,42,0,27,2024-02-18 15:04:20,-3.6982922,40.4108488,"(-3.6982922, 40.4108488)"
61,"Calle Lavapiés nº 34,",01,012,0,18,1447,0,43 - Jesús y María,0,43,0,18,2024-02-18 15:04:20,-3.702471,40.4100387,"(-3.702471, 40.4100387)"
62,"Calle Mesón de Paredes nº 44,",01,012,13,6,1448,2,44 - Plaza de Nelson Mandela,0,44,0,19,2024-02-18 15:04:20,-3.7038640533106593,40.40979071254635,"(-3.7038640533106593, 40.40979071254635)"
63,"Calle Berrocal, 9,",17,173,10,17,2302,2,"402 - Calle Berrocal, 9",0,402,0,27,2024-02-18 15:04:20,-3.67615,40.344115,"(-3.67615, 40.344115)"
64,"Tomas Redondo, 7,",16,166,10,13,2303,2,"543 - Tomas Redondo, 7",0,543,0,23,2024-02-18 15:04:20,-3.62913802,40.47178414,"(-3.62913802, 40.47178414)"
65,"Paseo Virgen del Puerto, 27 ,",02,021,3,12,2304,0,"277 - Virgen del Puerto, 25",0,277,0,15,2024-02-18 15:04:20,-3.721178,40.411622,"(-3.721178, 40.411622)"
66,"Avenida Menéndez Pelayo enfrente del nº33 ,",03,035,17,6,2306,1,282 - Parque Retiro - Puerta Reina Mercedes,0,282,0,23,2024-02-18 15:04:20,-3.6787796,40.4181327,"(-3.6787796, 40.4181327)"
67,"Calle Mayor , 6,",01,016,1,22,2307,0,1 - Metro Sol,0,1,0,23,2024-02-18 15:04:20,-3.7054098,40.416465,"(-3.7054098, 40.416465)"
68,"Avenida Gran Vía de San Francisco, 9,",01,011,8,15,2308,2,"263 - Gran Vía de San Francisco, 9",0,263,0,23,2024-02-18 15:04:20,-3.712793282384579,40.40833880815136,"(-3.712793282384579, 40.40833880815136)"
69," Calle Babilonia, 19,",21,215,18,5,2309,1,"559 - Calle Babilonia, 19",0,559,0,23,2024-02-18 15:04:20,-3.5882347,40.4675299,"(-3.5882347, 40.4675299)"
70,"Camino de Ganapanes, 40,",08,083,15,9,2311,2,"581 - Camino de Ganapanes, 40",0,581,0,24,2024-02-18 15:04:20,-3.7163093,40.4764797,"(-3.7163093, 40.4764797)"
71,"Calle San Modesto, 44,",08,086,6,18,2312,0,598 - Hospital Ramón y Cajal,0,598,0,24,2024-02-18 15:04:20,-3.6923396,40.4858012,"(-3.6923396, 40.4858012)"
72,"Calle Escalona, 2,",10,104,13,14,2313,2,341 - Escalona - Seseña,0,341,0,27,2024-02-18 15:04:20,-3.76182259,40.39834576,"(-3.76182259, 40.39834576)"
73,"Calle de Tembleque, 31 ,",10,104,8,16,2314,2,346 - Metro Empalme,0,346,0,24,2024-02-18 15:04:20,-3.7664844,40.3907438,"(-3.7664844, 40.3907438)"
74,"Avenida de las Aguilas, 27 ,",10,107,20,4,2315,1,347 - Estación de tren Maestra Justa Freire,0,347,0,24,2024-02-18 15:04:20,-3.768603,40.383554,"(-3.768603, 40.383554)"
75,"Calle Albelda, 6,",15,156,11,13,2316,2,"528 - Albelda, 6",0,528,0,24,2024-02-18 15:04:20,-3.6573666,40.4494225,"(-3.6573666, 40.4494225)"
76,"Paseo de la Venta, 1,",09,091,7,20,2317,0,312 - Metro Batán,0,312,0,27,2024-02-18 15:04:20,-3.7528559,40.4077495,"(-3.7528559, 40.4077495)"
77,"Carretera del zoo s/n (metro Casa de Campo) ,",09,091,11,16,2318,2,321 - Metro Casa de Campo,0,321,0,27,2024-02-18 15:04:20,-3.761051,40.40316,"(-3.761051, 40.40316)"
78,"Calle Rosas de Aravaca, s/n ,",09,097,14,9,2319,2,310 - Estación de tren de Aravaca,0,310,0,23,2024-02-18 15:04:20,-3.7845536,40.4490509,"(-3.7845536, 40.4490509)"
79,"Calle Profesor Aranguren, 1 ,",09,093,6,21,2320,0,311 - C. Universitaria - Fac de Geogr. e Hª,0,311,0,27,2024-02-18 15:04:20,-3.733574,40.448553,"(-3.733574, 40.448553)"
80,"Calle Felipe IV, 5 ,",03,035,19,4,2321,1,283 - Museo Nacional del Prado,0,283,0,23,2024-02-18 15:04:20,-3.6919057,40.4152082,"(-3.6919057, 40.4152082)"
81,"564 - Avda del Partenon, 16,",21,215,16,7,2322,2,"564 - Avda del Partenon, 16",0,564,0,23,2024-02-18 15:04:20,-3.613867,40.463861,"(-3.613867, 40.463861)"
82,"Calle Caños de San Pedro, 12,",19,191,10,13,2323,2,"468 - Calle Caños de San Pedro, 12",0,468,0,23,2024-02-18 15:04:20,-3.601920499999999,40.4029976,"(-3.601920499999999, 40.4029976)"
83,"465 - Cordel de Pavones, 48,",19,192,18,6,2324,1,"465 - Cordel de Pavones, 48",0,465,0,24,2024-02-18 15:04:20,-3.619645,40.397375,"(-3.619645, 40.397375)"
84,"414 -  Calle de Santa Petronila, 7,",17,174,4,20,2325,0,"414 -  Calle de Santa Petronila, 7",0,414,0,24,2024-02-18 15:04:20,-3.692163,40.350985,"(-3.692163, 40.350985)"
85,"Calle de la Oca, 20,",11,113,6,18,2326,0,"380. - 380 -  Calle de la Oca, 20",0,380.,0,24,2024-02-18 15:04:20,-3.7335492,40.3894333,"(-3.7335492, 40.3894333)"
86,"411 - Calle Domingo Párraga,",17,171,3,20,2327,0,411 - Calle Domingo Párraga,0,411,0,23,2024-02-18 15:04:20,-3.7118183,40.3417533,"(-3.7118183, 40.3417533)"
87,"Jacinto Verdaguer, 12,",11,112,6,18,2328,0,354 - Jacinto Verdaguer,0,354,0,24,2024-02-18 15:04:20,-3.7160526116262793,40.39593854704345,"(-3.7160526116262793, 40.39593854704345)"
88,"Calle Santa Pola, 22 ,",09,091,9,14,2329,2,318 - CDP José María Cagigal,0,318,0,23,2024-02-18 15:04:20,-3.7370276473602226,40.43205131007265,"(-3.7370276473602226, 40.43205131007265)"
89,"549 - Avd. Francisco PI y Maragall, 33,",16,166,4,15,2330,0,"549 - Avd. Francisco PI y Maragall, 33",0,549,0,19,2024-02-18 15:04:20,-3.6503544,40.4866354,"(-3.6503544, 40.4866354)"
90,"279 - Paseo de los Melancólicos, 1,",02,021,9,14,2331,2,"279 - Paseo de los Melancólicos, 1",0,279,0,23,2024-02-18 15:04:20,-3.7184816,40.4104448,"(-3.7184816, 40.4104448)"
91,"Calle Carmen de Burgos, 4,",17,174,10,13,2332,2,"407 - Calle Carmen de Burgos, 4",0,407,0,23,2024-02-18 15:04:20,-3.6847883,40.3575459,"(-3.6847883, 40.3575459)"
92,"Calle del Tejo, 22 ,",02,027,11,12,2305,2,272 - Tejo - Parque La Ronda,0,272,0,23,2024-02-18 15:04:20,-3.679186,40.39663,"(-3.679186, 40.39663)"
93,"Calle Valcarlos, nº20 ,Comunidad de Madrid España",08,086,3,24,2359,0,607 - Metro Ligero - Palas de Rey,0,607,0,27,2024-02-18 15:04:20,-3.6641571,40.5051915,"(-3.6641571, 40.5051915)"
94,"Glorieta de la Puerta de Toledo nº 1,",01,012,12,7,1449,2,45 - Metro Puerta de Toledo,0,45,0,19,2024-02-18 15:04:20,-3.7111034,40.4068659,"(-3.7111034, 40.4068659)"
95,"Calle Ribera de Curtidores nº 28,",02,022,20,7,1450,1,46 - Ribera de Curtidores,0,46,0,27,2024-02-18 15:04:20,-3.7071259,40.4053153,"(-3.7071259, 40.4053153)"
96,"Glorieta de Embajadores nº 7,",02,022,21,3,1451,1,47 - Renfe/Cercanías Embajadores,0,47,0,24,2024-02-18 15:04:20,-3.7027998,40.4045772,"(-3.7027998, 40.4045772)"
97,"Glorieta de Embajadores nº 7,",01,012,19,4,1452,1,48 - Casa de baños Embajadores,0,48,0,24,2024-02-18 15:04:20,-3.7020566,40.4054815,"(-3.7020566, 40.4054815)"
98,"Ronda de Atocha nº 34,",01,012,24,3,1453,1,49 - Casa Encendida,0,49,0,27,2024-02-18 15:04:20,-3.6992774,40.4060533,"(-3.6992774, 40.4060533)"
99,"Calle de Santa Isabel (esquina con plaza del Emperador Carlos V),",01,012,19,5,1454,1,50 - Museo Reina Sofía,0,50,0,24,2024-02-18 15:04:20,-3.6933463,40.4083684,"(-3.6933463, 40.4083684)"
100,"Ronda de Atocha (esquina con Plaza del Emperador Carlos V),",01,012,17,10,1455,2,51 - Ronda de Atocha,0,51,0,27,2024-02-18 15:04:20,-3.6935205,40.4075606,"(-3.6935205, 40.4075606)"
101,"Plaza de Santa Ana nº 10,",01,013,8,7,1456,2,52 - Plaza de Santa Ana,0,52,0,15,2024-02-18 15:04:20,-3.7007164,40.4144226,"(-3.7007164, 40.4144226)"
102,"Calle Valencia nº 1,",01,012,14,10,1457,2,53 - Plaza de Lavapiés,0,53,0,24,2024-02-18 15:04:20,-3.700754126389314,40.40830870823806,"(-3.700754126389314, 40.40830870823806)"
103,"Calle Barceló nº 9,",01,014,6,13,1458,0,54 - Metro Tribunal,0,54,0,19,2024-02-18 15:04:20,-3.700392997553259,40.426599101766264,"(-3.700392997553259, 40.426599101766264)"
104,"Plaza de San Ildefonso nº4,",01,015,5,19,1459,0,55 - Plaza de San Ildefonso,0,55,0,24,2024-02-18 15:04:20,-3.7020842,40.4239757,"(-3.7020842, 40.4239757)"
105,"Plaza del Carmen nº 1,",01,016,16,7,1460,2,56 - Plaza del Carmen ,0,56,0,23,2024-02-18 15:04:20,-3.7032414,40.4184192,"(-3.7032414, 40.4184192)"
106,"Calle Santa Cruz del Marcenado nº 26,",01,015,10,13,1461,2,57 - Santa Cruz del Marcenado,0,57,0,23,2024-02-18 15:04:20,-3.7126299,40.4295658,"(-3.7126299, 40.4295658)"
107,"Calle Augusto Figueroa nº 33,",01,014,11,16,1462,2,58 - Metro Chueca,0,58,0,27,2024-02-18 15:04:20,-3.6978583,40.4222783,"(-3.6978583, 40.4222783)"
108,"Calle Espíritu Santo nº 30,",01,015,9,10,1463,2,59 - Plaza de Juan Pujol,0,59,0,19,2024-02-18 15:04:20,-3.7043418,40.4255495,"(-3.7043418, 40.4255495)"
109,"Plaza de la Independencia, s/n ,",03,035,25,0,1464,1,60 - Puerta de Alcalá,0,60,0,23,2024-02-18 15:04:20,-3.688398,40.419752,"(-3.688398, 40.419752)"
110,"Calle O'Donnell nº 30,",03,034,23,4,1465,1,61 - O'Donnell - Narváez,0,61,0,27,2024-02-18 15:04:20,-3.6753139,40.4214551,"(-3.6753139, 40.4214551)"
111,"Calle O'Donnell nº 48,",03,034,15,12,1466,2,62 - Hospital M. Infantil Gregorio Marañón,0,62,0,27,2024-02-18 15:04:20,-3.6724968,40.4213148,"(-3.6724968, 40.4213148)"
112,"Calle Ibiza nº 64,",03,034,11,12,1467,2,63 - Hospital Universitario Gregorio Marañón,0,63,0,23,2024-02-18 15:04:20,-3.6708959,40.4179237,"(-3.6708959, 40.4179237)"
113,"Calle Antonio Maura nº 13,",03,035,23,0,1468,1,65 - Parque del Retiro - Calle Antonio Maura,0,65,0,23,2024-02-18 15:04:20,-3.689424797942769,40.4167014469994,"(-3.689424797942769, 40.4167014469994)"
114,"Calle Almadén nº 28,",01,013,23,0,1469,1,67 - CaixaForum Madrid,0,67,0,23,2024-02-18 15:04:20,-3.693225,40.4108472,"(-3.693225, 40.4108472)"
115,"Calle Espalter nº 3,",03,035,13,6,1470,2,68 - Espalter - Ruiz de Alarcón,0,68,0,19,2024-02-18 15:04:20,-3.6913232,40.4127692,"(-3.6913232, 40.4127692)"
116,"Avenida de Alfonso XII nº 54,",03,035,25,2,1471,1,69 - Parque del Retiro - Puerta Ángel Caído,0,69,0,27,2024-02-18 15:04:20,-3.688822,40.409808,"(-3.688822, 40.409808)"
117,"Avenida de Menéndez Pelayo nº 63,",03,035,26,1,1472,1,70 - Hospital Infantil Niño Jesús,0,70,0,27,2024-02-18 15:04:20,-3.677872542327878,40.415382385574716,"(-3.677872542327878, 40.415382385574716)"
118,"Calle Doce de Octubre nº 28,",03,034,5,18,1473,0,71 - Plaza del Doctor Laguna,0,71,0,23,2024-02-18 15:04:20,-3.6739,40.4161,"(-3.6739, 40.4161)"
119,"Calle Doctor Esquerdo nº 62,",03,036,19,4,1474,1,72 - Metro Sáinz de Baranda,0,72,0,23,2024-02-18 15:04:20,-3.6696,40.4159,"(-3.6696, 40.4159)"
120,"Calle de los Astros, nº5 ,",03,033,19,4,1475,1,73 - Plaza de los Astros,0,73,0,23,2024-02-18 15:04:20,-3.6687,40.4115,"(-3.6687, 40.4115)"
121,"Avenida de Menéndez Pelayo nº 69,",03,035,21,6,1476,1,74 - Parque del Retiro - Jardines de Cecilio ,0,74,0,27,2024-02-18 15:04:20,-3.676588763788984,40.41206290978386,"(-3.676588763788984, 40.41206290978386)"
122,"Avenida Menéndez pelayo (esquina con calle Poeta Esteban Villegas),",03,035,18,9,1477,2,75 - Parque del Retiro - Plaza Mariano Cavia,0,75,0,27,2024-02-18 15:04:20,-3.6784749,40.4082717,"(-3.6784749, 40.4082717)"
123,"Avenida del Mediterráneo nº 19,",03,036,15,9,1478,2,"76 - Avenida del Mediterráneo, 19",0,76,0,24,2024-02-18 15:04:20,-3.675102,40.407271,"(-3.675102, 40.407271)"
124,"Plaza del Conde de Casal nº 8,",03,031,10,8,1479,2,77 - Plaza del Conde de Casal,0,77,0,18,2024-02-18 15:04:20,-3.6707132,40.4064784,"(-3.6707132, 40.4064784)"
125,"Calle Cerro de la Plata nº 4,",03,032,9,14,1480,2,78 - Metro Pacífico,0,78,0,23,2024-02-18 15:04:20,-3.6745240600494444,40.40063747422422,"(-3.6745240600494444, 40.40063747422422)"
126,"Avenida de Menéndez Pelayo nº 38,",03,031,26,1,1481,1,79 - Metro Menéndez Pelayo,0,79,0,27,2024-02-18 15:04:20,-3.6804398243230696,40.405110193977585,"(-3.6804398243230696, 40.405110193977585)"
127,"Calle Claudio Moyano, nº5 ,",03,035,8,16,1484,2,81 - Cuesta de Moyano,0,81,0,24,2024-02-18 15:04:20,-3.691833220071059,40.40934261188139,"(-3.691833220071059, 40.40934261188139)"
128,"Calle Lira, nº1 ,",03,033,23,0,1485,1,82 - Doctor Esquerdo - Metro Conde de Casal,0,82,0,23,2024-02-18 15:04:20,-3.6697526,40.4084556,"(-3.6697526, 40.4084556)"
129,"Calle Pío Baroja nº8,",03,036,15,8,1486,2,83 - Pío Baroja,0,83,0,23,2024-02-18 15:04:20,-3.6744795,40.4132995,"(-3.6744795, 40.4132995)"
130,"Calle Doctor Esquerdo nº 191,",03,032,21,2,1487,1,84 - Biblioteca Pública Elena Fortún,0,84,0,23,2024-02-18 15:04:20,-3.672481575393678,40.40357156992851,"(-3.672481575393678, 40.40357156992851)"
131,"Avenida de Menéndez Pelayo, 9,",03,035,18,9,1488,2,85 - Parque del Retiro - Puerta de O´Donnell,0,85,0,27,2024-02-18 15:04:20,-3.679891,40.4213143,"(-3.679891, 40.4213143)"
132,"Plaza Cibeles,",01,013,17,7,1489,1,86 - Cibeles,0,86,0,24,2024-02-18 15:04:20,-3.6933498,40.4186516,"(-3.6933498, 40.4186516)"
133,"Calle Ayala nº 44,",04,041,18,5,1490,1,87 - Ayala - Velázquez,0,87,0,23,2024-02-18 15:04:20,-3.6832566,40.427736,"(-3.6832566, 40.427736)"
134,"Calle Velázquez nº 75,",04,046,7,16,1491,0,88 - Velázquez-Padilla,0,88,0,23,2024-02-18 15:04:20,-3.6838303,40.4313576,"(-3.6838303, 40.4313576)"
135,"Calle Ayala nº 102,",04,042,2,21,1492,0,89 - Ayala - Conde de Peñalver,0,89,0,23,2024-02-18 15:04:20,-3.6752024,40.4272582,"(-3.6752024, 40.4272582)"
136,"Calle Goya nº 18,",04,041,15,12,1493,2,90 - Metro Velázquez,0,90,0,27,2024-02-18 15:04:20,-3.6838416,40.4251493,"(-3.6838416, 40.4251493)"
137,"Calle Hermosilla nº 70,",04,042,8,15,1494,2,91 - Hermosilla - General Pardiñas,0,91,0,23,2024-02-18 15:04:20,-3.6786285,40.426049,"(-3.6786285, 40.426049)"
138,"Calle Claudio Coello nº 45,",04,041,14,9,1495,2,92 - Claudio Coello - Hermosilla,0,92,0,23,2024-02-18 15:04:20,-3.6865463,40.4262945,"(-3.6865463, 40.4262945)"
139,"Calle Goya nº 1,",04,041,3,20,1496,0,93 - Plaza de Margaret Tatcher,0,93,0,23,2024-02-18 15:04:20,-3.6893361690338167,40.42575853342561,"(-3.6893361690338167, 40.42575853342561)"
140,"Paseo de Recoletos nº 20,",04,041,1,22,1497,0,94 - Estación de tren de Recoletos,0,94,0,23,2024-02-18 15:04:20,-3.690756,40.4232153,"(-3.690756, 40.4232153)"
141,"Calle Claudio Coello nº 19,",04,041,11,12,1498,2,95 - Claudio Coello - Villanueva,0,95,0,23,2024-02-18 15:04:20,-3.6869293,40.4225428,"(-3.6869293, 40.4225428)"
142,"Calle Alcalá nº 111,",04,041,18,9,1499,2,96 - Alcalá - Castelló,0,96,0,27,2024-02-18 15:04:20,-3.682204798770403,40.42201515498424,"(-3.682204798770403, 40.42201515498424)"
143,"Avenida de Menéndez Pelayo nº 3,",04,042,18,9,1500,2,97 - Metro Príncipe de Vergara,0,97,0,27,2024-02-18 15:04:20,-3.6802556,40.4225364,"(-3.6802556, 40.4225364)"
144,"Plaza de Felipe II,",04,042,7,17,1501,0,98 - Plaza de Felipe II,0,98,0,24,2024-02-18 15:04:20,-3.6757676,40.4241325,"(-3.6757676, 40.4241325)"
145,"Calle Alcántara nº 2,",04,042,2,21,1502,0,99 - Alcántara - Hermosilla,0,99,0,23,2024-02-18 15:04:20,-3.6740178,40.4260391,"(-3.6740178, 40.4260391)"
146,"Calle Goya nº 99,",04,042,14,13,1503,2,100 - Wizink Center,0,100,0,27,2024-02-18 15:04:20,-3.67384,40.42478,"(-3.67384, 40.42478)"
147,"Calle Jorge Juan nº 131,",04,042,9,14,1504,2,101 - Metro O'Donnell,0,101,0,24,2024-02-18 15:04:20,-3.6696804,40.4230771,"(-3.6696804, 40.4230771)"
148,"Calle Alcalá nº 95,",04,041,15,8,1505,2,102 - Metro Retiro,0,102,0,23,2024-02-18 15:04:20,-3.6842317,40.4211845,"(-3.6842317, 40.4211845)"
149,"Calle José Ortega y Gasset nº 4,",04,046,13,10,1506,2,103 - Ortega y Gasset - Serrano,0,103,0,23,2024-02-18 15:04:20,-3.686744,40.43053,"(-3.686744, 40.43053)"
150,"Paseo de la Castellana nº 4,",04,041,5,17,1507,0,104 - Castellana - Hermosilla,0,104,0,22,2024-02-18 15:04:20,-3.68958,40.42677,"(-3.68958, 40.42677)"
151,"Calle Serrano nº 46,",04,041,11,12,1508,2,"105 - Serrano, 46",0,105,0,23,2024-02-18 15:04:20,-3.6875418,40.4270832,"(-3.6875418, 40.4270832)"
152,"Calle Serrano nº 32,",04,041,12,7,1510,2,106b - 106B - Plaza de Colón B,0,106b,0,19,2024-02-18 15:04:20,-3.68789,40.424776,"(-3.68789, 40.424776)"
153,"Paseo Alberto Palacios, 42,",17,171,2,21,2243,0,"405 - Alberto Palacios, 42",0,405,0,23,2024-02-18 15:04:20,-3.7129039644180373,40.3449259916087,"(-3.7129039644180373, 40.3449259916087)"
154,"Calle de Eduardo Maristany, 7,",17,173,7,20,2244,0,"401 - Eduardo Maristany, 7",0,401,0,27,2024-02-18 15:04:20,-3.683127,40.353285,"(-3.683127, 40.353285)"
155,"Calle Cifuentes, 5,",17,175,9,14,2245,2,"406 - Calle Cifuentes, 5",0,406,0,23,2024-02-18 15:04:20,-3.6960817,40.3486,"(-3.6960817, 40.3486)"
156,"Calle de Auñón, 16,",17,173,22,1,2246,1,"403 - Auñón, 16",0,403,0,23,2024-02-18 15:04:20,-3.6775242,40.3504944,"(-3.6775242, 40.3504944)"
157,"Paseo de los Melancólicos, 73 ,",02,021,20,3,2247,1,280 - P.o. de los Melancólicos - San Epifanio,0,280,0,23,2024-02-18 15:04:20,-3.718569,40.401782,"(-3.718569, 40.401782)"
158,"Calle Albox 33,",11,115,16,7,2248,2,367-2 - 367 - Albox 33,0,367-2,0,23,2024-02-18 15:04:20,-3.73984,40.373972,"(-3.73984, 40.373972)"
159,"Paseo de los Jesuitas, 4 ,",10,102,5,18,2249,0,325b - 325 - P.o. Jesuitas - Pza. Cerro Bermejo,0,325b,0,23,2024-02-18 15:04:20,-3.7305543,40.4106918,"(-3.7305543, 40.4106918)"
160,"Calle Sierra de Atapuerca, 19,",08,086,10,13,2250,2,"578 - Sierra de Atapuerca, 19",0,578,0,23,2024-02-18 15:04:20,-3.67042488,40.50292982,"(-3.67042488, 40.50292982)"
161,"Calle Puerto de Porzuna, 34,",18,181,23,0,2251,1,"446 - Puerto de Porzuna 34, ",0,446,0,23,2024-02-18 15:04:20,-3.6236297,40.373826,"(-3.6236297, 40.373826)"
162,"Parque Eugenia de Montijo, 2,",11,114,18,6,2252,1,"382-2 - 382 -Parque Eugenia de Montijo, 2",0,382-2,0,24,2024-02-18 15:04:20,-3.7545822,40.3783501,"(-3.7545822, 40.3783501)"
163,"Transversal Sexta, 17,",17,171,2,22,2254,0,"410 - Transversal Sexta ,17",0,410,0,24,2024-02-18 15:04:20,-3.6992665,40.3325463,"(-3.6992665, 40.3325463)"
164,"579 - Maria Tubau,",08,086,14,10,2256,2,"579 - Maria Tubau, 1",0,579,0,24,2024-02-18 15:04:20,-3.6717035870335635,40.51399230680476,"(-3.6717035870335635, 40.51399230680476)"
165,"Calle del Monasterio de Sobrado, nº6,",08,088,7,17,2257,0,602 - Monasterio Sobrado - Monaterio Silos,0,602,0,24,2024-02-18 15:04:20,-3.692837,40.5093225,"(-3.692837, 40.5093225)"
166,"Calle Ubeda esquina Plaza Virgen de la capilla ,",08,083,4,20,2258,0,600 - Centro Deportivo Municipal La Masó,0,600,0,24,2024-02-18 15:04:20,-3.7149566,40.4825507,"(-3.7149566, 40.4825507)"
167,"566 - Avenida de Logroño, 315,",21,214,17,7,2259,1,"566 - Avenida de Logroño, 315",0,566,0,24,2024-02-18 15:04:20,-3.5815033,40.4703472,"(-3.5815033, 40.4703472)"
168,"565- Playa de Riazor, 66,",21,214,2,22,2260,0,"565 - Playa de Riazor, 66",0,565,0,24,2024-02-18 15:04:20,-3.5838869,40.47563573,"(-3.5838869, 40.47563573)"
169,"467 -  Calle Villardondiego frente,  32,",19,191,14,10,2261,2,467 -  Calle Villardondiego  32,0,467,0,24,2024-02-18 15:04:20,-3.6084888,40.4062361,"(-3.6084888, 40.4062361)"
170,"469 - Ladera de los Almendros, 6,",19,192,11,13,2262,2,"469 - Ladera de los Almendros, 6",0,469,0,24,2024-02-18 15:04:20,-3.62299,40.40343,"(-3.62299, 40.40343)"
171,"470 - Avenida Real, 3,",19,191,13,5,2263,1,"470 - Avenida Real, 3",0,470,0,18,2024-02-18 15:04:20,-3.6063672,40.4021519,"(-3.6063672, 40.4021519)"
172,"471 - Calle Molino Viejo frente , 14,",19,193,7,11,2264,2,"471 - Molino Viejo frente , 14",0,471,0,18,2024-02-18 15:04:20,-3.60666,40.396301,"(-3.60666, 40.396301)"
173,"Calle Amaltea, 1 ,",02,025,12,12,2265,2,271 - Amaltea-Meneses,0,271,0,24,2024-02-18 15:04:20,-3.68317,40.394706,"(-3.68317, 40.394706)"
174,"Calle Villablanca 7,",19,191,13,10,2266,2,466  - Villablanca  7,0,466,0,23,2024-02-18 15:04:20,-3.60783265,40.40894698,"(-3.60783265, 40.40894698)"
175,"Paseo Juan Antonio Vallejo-Nájera Botas, 25 ,",02,022,18,5,2267,1,"275 - Juan Antonio Vallejo-Nájera Botas, 25",0,275,0,23,2024-02-18 15:04:20,-3.7082123,40.4020545,"(-3.7082123, 40.4020545)"
176," Avenida de la Aurora Boreal, 19,",19,193,10,13,2268,2,"475 - Aurora Boreal, 19",0,475,0,23,2024-02-18 15:04:20,-3.603668,40.399236,"(-3.603668, 40.399236)"
177,"Calle Méndez Álvaro, 73 ,",02,027,6,17,2269,0,274 - Estación Sur Méndez Álvaro A,0,274,0,23,2024-02-18 15:04:20,-3.68134346,40.39675755,"(-3.68134346, 40.39675755)"
178,"Calle Nuria nº24,",08,087,8,16,2270,2,605 - Nuria - Peña Sirio,0,605,0,24,2024-02-18 15:04:20,-3.704883,40.491644,"(-3.704883, 40.491644)"
179,"Avenida Arcentales S/N,",20,205,1,23,2271,0,522 - Avenida Arcentales S/N,0,522,0,24,2024-02-18 15:04:20,-3.60097542,40.43333298,"(-3.60097542, 40.43333298)"
180,"calle Paseo Ginebra,",20,205,3,21,2272,0,521 - Paseo Ginebra,0,521,0,24,2024-02-18 15:04:20,-3.6048181,40.423893,"(-3.6048181, 40.423893)"
181,"Parador de Santa Lucía, 8,",20,207,10,14,2273,2,"508. - 508 - Parador de Santa Lucía, 8",0,508.,0,24,2024-02-18 15:04:20,-3.609553,40.449095,"(-3.609553, 40.449095)"
182,"Avenida Ciudad de Barcelona (esquina con Plaza de Carlos V),",03,035,19,4,2274,1,80-A - 80A - Estación de Atocha A,0,80-A,0,23,2024-02-18 15:04:20,-3.690538,40.407573,"(-3.690538, 40.407573)"
183,"Avenida Ciudad de Barcelona (esquina con Plaza de Carlos V),",03,035,17,10,2275,2,80-B - 80B - Estación de Atocha B,0,80-B,0,27,2024-02-18 15:04:20,-3.6904748,40.4075211,"(-3.6904748, 40.4075211)"
184,"Adolfo Bioy Casares, 9,",18,183,14,13,2276,2,"447 - Calle de Adolfo Bioy Casares, 9",0,447,0,27,2024-02-18 15:04:20,-3.5981935,40.3668504,"(-3.5981935, 40.3668504)"
185,"Calle San Jenaro, 1,",17,171,23,1,2278,1,"412 - San Jenaro, 1",0,412,0,24,2024-02-18 15:04:20,-3.7043083,40.3500291,"(-3.7043083, 40.3500291)"
186,"Calle  Diamante, 10,",17,174,3,21,2279,0,"415 - Diamante, 10",0,415,0,24,2024-02-18 15:04:20,-3.6877534,40.3532609,"(-3.6877534, 40.3532609)"
187,"Calle Doctor Martín Arévalo, 19,",17,171,10,14,2280,2,"413 - Doctor Martín Arévalo, 19",0,413,0,24,2024-02-18 15:04:20,-3.707413,40.345928,"(-3.707413, 40.345928)"
188,"Calle Zapatoca, 8,",16,164,0,23,2281,0,"545 - Zapatoca, 8",0,545,0,23,2024-02-18 15:04:20,-3.63335803,40.47285235,"(-3.63335803, 40.47285235)"
189,"Plaza Mayor de Barajas, 24,",21,213,15,9,2282,2,"567 - Plaza Mayor de Barajas, 24",0,567,0,24,2024-02-18 15:04:20,-3.5776537,40.4733252,"(-3.5776537, 40.4733252)"
190,"Calle Soto Hidalgo, 2,",21,211,18,9,2283,2,"563 - Soto Hidalgo, 2",0,563,0,27,2024-02-18 15:04:20,-3.5820745,40.4606465,"(-3.5820745, 40.4606465)"
191,"Paseo de Reina Cristina, 6 ,",03,031,21,2,2285,1,281 - Reina Cristina - Julián Gayarre,0,281,0,23,2024-02-18 15:04:20,-3.6831862,40.4067247,"(-3.6831862, 40.4067247)"
192,"Ronda de la Comunicación, s/n,",08,086,6,17,2286,0,609 - Metro Ronda de la Comunicación,0,609,0,23,2024-02-18 15:04:20,-3.6626887,40.5157202,"(-3.6626887, 40.5157202)"
193,"calle Moncada 102,",17,172,12,11,2287,2,408 - Moncada 102,0,408,0,23,2024-02-18 15:04:20,-3.692444,40.341725,"(-3.692444, 40.341725)"
194,"Calle Eduardo Barreiros 114,",17,175,12,11,2288,2,409 - Calle Eduardo Barreiros 114,0,409,0,23,2024-02-18 15:04:20,-3.7046436,40.3553495,"(-3.7046436, 40.3553495)"
195,"Calle Fermín Caballero 2,",08,085,6,17,2289,0,606 - Fermín Caballero - Betanzos,0,606,0,23,2024-02-18 15:04:20,-3.698485,40.487363,"(-3.698485, 40.487363)"
196,"calle de la huerta de castañeda 26,",10,103,9,15,2290,2,349 - Huerta de Castañeda 26,0,349,0,24,2024-02-18 15:04:20,-3.74201882097404,40.40622095698234,"(-3.74201882097404, 40.40622095698234)"
197,"calle Gregorio Sánchez Herráez 14,",16,166,10,13,2291,2,544 - Gregorio Sánchez Herráez 14,0,544,0,23,2024-02-18 15:04:20,-3.63657,40.477248,"(-3.63657, 40.477248)"
198,"Calle Oña s/n,",16,166,7,16,2292,0,551 - Calle Oña s/n,0,551,0,23,2024-02-18 15:04:20,-3.6658565,40.4891872,"(-3.6658565, 40.4891872)"
199,"calle Ana de Austria s/n,",16,166,0,27,2293,0,552 - calle Ana de Austria s/n,0,552,0,27,2024-02-18 15:04:20,-3.6531502,40.4994394,"(-3.6531502, 40.4994394)"
200,"Avd Fuerzas Armadas (Cercanias Valdebebas),",21,214,9,15,2294,2,542 - Av. Fuerzas Armadas (Cer. Valdebebas),0,542,0,24,2024-02-18 15:04:20,-3.6157178,40.4819961,"(-3.6157178, 40.4819961)"
201,"Paseo de la Puerta del Ángel, 10 ,",09,091,19,0,2297,1,320 - Metro Lago,0,320,0,19,2024-02-18 15:04:20,-3.7345247,40.4167792,"(-3.7345247, 40.4167792)"
202,"Calle Estella, 21,",08,086,14,9,2298,2,608 - Estella - Camino de Santiago,0,608,0,23,2024-02-18 15:04:20,-3.6743568,40.4968198,"(-3.6743568, 40.4968198)"
203,"Paseo de los Pontones, 26 ,",02,021,21,2,2299,1,278 - P.o. Pontones - P.o. Melancólicos,0,278,0,23,2024-02-18 15:04:20,-3.7196,40.4040433,"(-3.7196, 40.4040433)"
204,"Calle luis de Salazar, 16 ,",05,052,2,21,2300,0,289 - Luis de Salazar - Padre Claret,0,289,0,23,2024-02-18 15:04:20,-3.6649258,40.4474166,"(-3.6649258, 40.4474166)"
205,"Rafaela Aparicio, 10,",16,166,6,21,2301,0,"547 - Rafaela Aparicio, 10",0,547,0,27,2024-02-18 15:04:20,-3.6312179,40.4792396,"(-3.6312179, 40.4792396)"
206,"Calle Serrano nº 8,",04,041,14,9,1511,2,107 - Serrano - Conde de Aranda,0,107,0,23,2024-02-18 15:04:20,-3.6883841104507464,40.42156087297841,"(-3.6883841104507464, 40.42156087297841)"
207,"Calle Mártires Concepcionistas nº 2,",04,042,12,15,1512,2,108 - Mártires Concepcionistas,0,108,0,27,2024-02-18 15:04:20,-3.670652,40.427402,"(-3.670652, 40.427402)"
208,"Calle José Ortega y Gasset nº 30,",04,046,7,16,1513,0,109 - Marqués de Salamanca,0,109,0,23,2024-02-18 15:04:20,-3.6814521,40.4301245,"(-3.6814521, 40.4301245)"
209,"Paseo de Moret nº 2,",09,091,10,13,1514,2,110 - Intercambiador de Moncloa,0,110,0,23,2024-02-18 15:04:20,-3.7201021,40.434745,"(-3.7201021, 40.434745)"
210,"Calle Arcipreste de Hita nº 10,",07,071,11,12,1515,2,111a - 111A - Metro Moncloa A,0,111a,0,23,2024-02-18 15:04:20,-3.7175248,40.4336027,"(-3.7175248, 40.4336027)"
211,"Calle Arcipreste de Hita nº 12,",07,071,16,7,1516,2,111b - 111B - Metro Moncloa B,0,111b,0,23,2024-02-18 15:04:20,-3.7177434,40.433913,"(-3.7177434, 40.433913)"
212,"Paseo de Moret nº 11,",09,092,23,0,1517,1,112 - Paseo de Moret - Parque del Oeste,0,112,0,23,2024-02-18 15:04:20,-3.724736,40.4326901,"(-3.724736, 40.4326901)"
213,"Paseo del Pintor Rosales frente al nº 38,",09,091,20,4,1518,1,113 - Teleférico Madrid - Estación Rosales,0,113,0,24,2024-02-18 15:04:20,-3.7207263,40.427538,"(-3.7207263, 40.427538)"
214,"Calle Quintana nº 13,",09,092,7,16,1519,0,114 - Quintana - Juan Álvarez de Mendizábal,0,114,0,23,2024-02-18 15:04:20,-3.7174631,40.4278379,"(-3.7174631, 40.4278379)"
215,"Calle Evaristo San Miguel nº 2,",09,092,23,0,1520,1,115 - Ferraz - Templo de Debod,0,115,0,23,2024-02-18 15:04:20,-3.7170515055225373,40.42531476841791,"(-3.7170515055225373, 40.42531476841791)"
216,"Plaza de España,",09,092,13,5,1521,1,116A - Plaza de España - Martín de los Heros,0,116A,0,18,2024-02-18 15:04:20,-3.713043,40.423679,"(-3.713043, 40.423679)"
217,"Calle de los Reyes,",01,015,6,12,1522,2,116B - Metro Plaza de España,0,116B,0,18,2024-02-18 15:04:20,-3.71046,40.423684,"(-3.71046, 40.423684)"
218,"Calle Altamirano nº 24,",09,092,3,20,1523,0,117 - Altamirano  - Martín de los Heros,0,117,0,23,2024-02-18 15:04:20,-3.7188898,40.4309797,"(-3.7188898, 40.4309797)"
219,"Calle Juan Martín el Empecinado nº 16,",02,026,19,4,1524,1,"118 - OFICINA DEL SER, APR Y BICIREGISTRO",0,118,0,23,2024-02-18 15:04:20,-3.6882407,40.400781,"(-3.6882407, 40.400781)"
220,"Calle Méndez Álvaro nº 11,",02,027,10,13,1525,2,"119 - Méndez Álvaro, 11",0,119,0,23,2024-02-18 15:04:20,-3.6862653,40.4012905,"(-3.6862653, 40.4012905)"
221,"Calle Palos de la Frontera nº 27,",02,026,5,22,1526,0,120 - Metro Palos de la Frontera,0,120,0,27,2024-02-18 15:04:20,-3.6948251018524214,40.403090451430614,"(-3.6948251018524214, 40.403090451430614)"
222,"Paseo de Santa María de la Cabeza nº 58,",02,026,15,12,1527,2,121 - Glorieta de Santa María de la Cabeza,0,121,0,27,2024-02-18 15:04:20,-3.6986027,40.4017487,"(-3.6986027, 40.4017487)"
223,"Calle Santa Engracia nº 14,",07,074,6,17,1528,0,122 - Santa Engracia - Zurbarán,0,122,0,23,2024-02-18 15:04:20,-3.6963659,40.4295362,"(-3.6963659, 40.4295362)"
224,"Calle Guzmán el Bueno nº 1,",07,071,7,20,1529,0,123 - Metro Argüelles,0,123,0,27,2024-02-18 15:04:20,-3.7133412,40.4306458,"(-3.7133412, 40.4306458)"
225,"Calle Manuel Silvela nº 20,",07,073,11,16,1530,2,124 - Metro Bilbao,0,124,0,27,2024-02-18 15:04:20,-3.6993695,40.430969,"(-3.6993695, 40.430969)"
226,"Calle Fernández de la Hoz nº 29,",07,074,20,7,1531,1,125 - Fdez. de la Hoz - Gral. Martínez Campos,0,125,0,27,2024-02-18 15:04:20,-3.6948,40.4353,"(-3.6948, 40.4353)"
227,"Calle del General Álvarez de Castro nº 1,",07,073,10,16,1532,2,126 - General Álvarez de Castro,0,126,0,27,2024-02-18 15:04:20,-3.7018044,40.4345976,"(-3.7018044, 40.4345976)"
228,"Calle Fernando el Católico nº 19,",07,072,12,15,1533,2,127 - Mercado Municipal de Vallehermoso,0,127,0,27,2024-02-18 15:04:20,-3.708439,40.4338516,"(-3.708439, 40.4338516)"
229,"Calle Cea Bermúdez nº 59,",07,076,24,3,1534,1,128 - Metro Islas Filipinas,0,128,0,27,2024-02-18 15:04:20,-3.7154,40.4392,"(-3.7154, 40.4392)"
230,"Calle José Abascal nº 33,",07,075,17,10,1535,2,129 - Metro Alonso Cano,0,129,0,27,2024-02-18 15:04:20,-3.6982353,40.4383865,"(-3.6982353, 40.4383865)"
231,"Calle Santa Engracia nº 127,",07,075,5,18,1536,0,130 - Metro Ríos Rosas,0,130,0,23,2024-02-18 15:04:20,-3.70164,40.44156,"(-3.70164, 40.44156)"
232,"Calle Bravo Murillo nº 44,",07,075,4,19,1537,0,131 - Plaza de Juan Zorrilla,0,131,0,23,2024-02-18 15:04:20,-3.70403123,40.4417884,"(-3.70403123, 40.4417884)"
233,"Calle Santa Engracia nº 168,",07,075,2,25,1538,0,132 - Glorieta de Cuatro Caminos,0,132,0,27,2024-02-18 15:04:20,-3.703605250412747,40.446377501314885,"(-3.703605250412747, 40.446377501314885)"
234,"Calle Raimundo Fernández Villaverde nº 33,",06,062,4,20,1539,0,133 - Raimundo Fdez. Villaverde - Dulcinea,0,133,0,24,2024-02-18 15:04:20,-3.7001669,40.447125,"(-3.7001669, 40.447125)"
235,"Calle María de Guzmán nº 58,",07,075,4,19,1540,0,134 - María de Guzmán - Agustín de Betancourt,0,134,0,23,2024-02-18 15:04:20,-3.6955687,40.4441818,"(-3.6955687, 40.4441818)"
236,"Plaza de San Juan de la Cruz nº 11,",07,075,1,22,1541,0,135 - Plaza de San Juan de la Cruz,0,135,0,23,2024-02-18 15:04:20,-3.692734,40.441481,"(-3.692734, 40.441481)"
237,"Paseo de la Castellana nº 106,",05,051,19,4,1542,1,136 - Metro Nuevos Ministerios,0,136,0,23,2024-02-18 15:04:20,-3.690769,40.4451244,"(-3.690769, 40.4451244)"
238,"Plaza de la República Argentina nº 6,",05,051,9,15,1543,2,137 - Plaza de la República Argentina,0,137,0,24,2024-02-18 15:04:20,-3.6853377,40.4454477,"(-3.6853377, 40.4454477)"
239,"Paseo de la Castellana esquina calle Raimundo Fernández Villaverde,",07,075,21,2,1544,1,138 - Estación de tren Nuevos Ministerios,0,138,0,23,2024-02-18 15:04:20,-3.6914063,40.4457414,"(-3.6914063, 40.4457414)"
240,"Calle José Gutiérrez Abascal nº 2,",05,051,6,18,1545,0,139 - José Gutiérrez Abascal - Castellana,0,139,0,24,2024-02-18 15:04:20,-3.690419307270818,40.43939562033124,"(-3.690419307270818, 40.43939562033124)"
241,"Calle Velázquez nº 130,",05,051,21,6,1546,1,140 - Velázquez - López de Hoyos,0,140,0,27,2024-02-18 15:04:20,-3.6830583,40.4387566,"(-3.6830583, 40.4387566)"
242,"Paseo de la Castellana nº 43,",07,074,3,9,1547,0,141 - Plaza de Emilio Castelar,0,141,0,12,2024-02-18 15:04:20,-3.6893917,40.4354047,"(-3.6893917, 40.4354047)"
243,"Paseo de la Castellana nº 42,",04,046,1,22,1548,0,142 - Bajo elevado de Eduardo Dato,0,142,0,23,2024-02-18 15:04:20,-3.6879154,40.4334087,"(-3.6879154, 40.4334087)"
244,"Calle General Pardiñas, 58 ,",04,045,9,14,1549,2,186 - General Pardiñas - Don Ramón de la Cruz,0,186,0,23,2024-02-18 15:04:20,-3.6783016,40.4289804,"(-3.6783016, 40.4289804)"
245,"Calle Juan Bravo nº 50,",04,045,13,14,1550,2,144 - Metro Diego de León,0,144,0,27,2024-02-18 15:04:20,-3.675556,40.4324081,"(-3.675556, 40.4324081)"
246,"Calle Ortega y Gasset nº 87,",04,045,20,3,1551,1,145 - Ortega y Gasset 87,0,145,0,23,2024-02-18 15:04:20,-3.6712823,40.429887,"(-3.6712823, 40.429887)"
247,"Calle María Francisca nº 3,",05,051,0,19,1552,0,146 - María Francisca 1,0,146,0,19,2024-02-18 15:04:20,-3.6788499,40.4442541,"(-3.6788499, 40.4442541)"
248,"Avenida del Doctor Arce nº 45,",05,051,2,21,1553,0,147 - Doctor Arce 45,0,147,0,23,2024-02-18 15:04:20,-3.6794,40.4484,"(-3.6794, 40.4484)"
249,"Calle Serrano nº 210,",05,051,3,20,1554,0,148 - Serrano 210,0,148,0,23,2024-02-18 15:04:20,-3.6813971,40.451117,"(-3.6813971, 40.451117)"
250,"Paseo de la Habana nº 42,",05,051,12,11,1555,2,149 - Plaza de Quito,0,149,0,23,2024-02-18 15:04:20,-3.6879303,40.4498515,"(-3.6879303, 40.4498515)"
251,"Calle Orense nº 12,",06,062,21,6,1557,1,151 - Orense 12,0,151,0,27,2024-02-18 15:04:20,-3.6953592650123657,40.44881224951987,"(-3.6953592650123657, 40.44881224951987)"
252,"Avenida del General Perón frente al nº 4,",06,062,3,20,1558,0,"152 - General Perón, 4",0,152,0,23,2024-02-18 15:04:20,-3.6989,40.4525,"(-3.6989, 40.4525)"
253,"Avenida del General Perón frente al nº 36,",06,062,1,22,1559,0,153 - General Perón - Poeta Joan Maragall,0,153,0,23,2024-02-18 15:04:20,-3.6936,40.4523,"(-3.6936, 40.4523)"
254,"Calle Orense nº 36,",06,062,4,20,1560,0,154 - Orense 36,0,154,0,24,2024-02-18 15:04:20,-3.6946218,40.4548456,"(-3.6946218, 40.4548456)"
255,"Calle San Germán nº 57,",06,062,10,13,1561,2,155 - San Germán 57,0,155,0,23,2024-02-18 15:04:20,-3.700930190178302,40.4573342300643,"(-3.700930190178302, 40.4573342300643)"
256,"Calle Sor Ángela de la Cruz nº 2,",06,063,10,14,1562,2,156 - Sor Ángela de la Cruz-Paseo Castellana,0,156,0,24,2024-02-18 15:04:20,-3.691533,40.4592351,"(-3.691533, 40.4592351)"
257,"Avenida de Alberto Alcocer nº 22,",05,054,11,12,1564,2,158 - Alberto Alcocer - Padre Damián,0,158,0,23,2024-02-18 15:04:20,-3.684625,40.45869,"(-3.684625, 40.45869)"
258,"Calle Colombia nº 7,",05,054,18,6,1566,1,160 - Metro Colombia,0,160,0,24,2024-02-18 15:04:20,-3.6763439,40.4572466,"(-3.6763439, 40.4572466)"
259,"Paseo de la Florida nº 8,",09,091,12,15,1567,2,161 - Intercambiador de Príncipe Pío A,0,161,0,27,2024-02-18 15:04:20,-3.7220993214090403,40.422192474165534,"(-3.7220993214090403, 40.422192474165534)"
260,"Paseo de los Olmos nº 28,",02,022,6,17,1568,0,162 - Metro Pirámides,0,162,0,23,2024-02-18 15:04:20,-3.7105765,40.4034968,"(-3.7105765, 40.4034968)"
261,"Paseo de la Esperanza nº 2,",02,022,6,13,1569,0,163 - Metro Acacias,0,163,0,19,2024-02-18 15:04:20,-3.706445,40.4037586,"(-3.706445, 40.4037586)"
262,"Paseo de las Delicias nº 94,",02,025,10,17,1570,2,164 - Paseo de las Delicias - Tomás Bretón,0,164,0,27,2024-02-18 15:04:20,-3.69461,40.39723,"(-3.69461, 40.39723)"
263,"Paseo de la Chopera nº 14,",02,023,21,22,1571,2,165 - Entrada Matadero - Paseo de la Chopera,0,165,0,43,2024-02-18 15:04:20,-3.697596,40.392888,"(-3.697596, 40.392888)"
264,"Calle Segovia nº 26,",01,011,13,14,1572,2,166 - Viaducto de Segovia,0,166,0,27,2024-02-18 15:04:20,-3.7133770233135133,40.41390473235381,"(-3.7133770233135133, 40.41390473235381)"
265,"Calle Segovia nº 45,",02,021,14,12,1573,2,167 - Segovia 45,0,167,0,27,2024-02-18 15:04:20,-3.71748917032373,40.41374770742206,"(-3.71748917032373, 40.41374770742206)"
266,"Paseo Santa María de la Cabeza nº 29,",02,026,6,17,1574,0,168 - Santa María Cabeza - Batalla del Salado,0,168,0,23,2024-02-18 15:04:20,-3.6959,40.4046,"(-3.6959, 40.4046)"
267,"Calle Toledo nº 181,",02,022,13,11,1575,2,169 - Glorieta de Pirámides,0,169,0,24,2024-02-18 15:04:20,-3.713823,40.401589,"(-3.713823, 40.401589)"
268,"Paseo de la Esperanza nº 21,",02,022,21,3,1576,1,"170 - Paseo de la Esperanza, 21",0,170,0,24,2024-02-18 15:04:20,-3.7043956,40.4010554,"(-3.7043956, 40.4010554)"
269,"Calle Embajadores nº 97,",02,025,8,19,1577,0,171 - Embajadores-Cáceres,0,171,0,27,2024-02-18 15:04:20,-3.6984023,40.3997013,"(-3.6984023, 40.3997013)"
270,"Calle Bustamante nº 3,",02,025,0,23,1578,0,172 - Estación de tren de Delicias,0,172,0,23,2024-02-18 15:04:20,-3.6934926,40.4008279,"(-3.6934926, 40.4008279)"
271,"Paseo de la Esperanza nº 59,",02,022,4,20,1579,0,173 - Paseo Esperanza - Santa María Cabeza,0,173,0,24,2024-02-18 15:04:20,-3.7024839,40.3983467,"(-3.7024839, 40.3983467)"
272,"Paseo de Yeserías nº 45,",02,022,21,6,1580,1,"174 - Paseo de las Yeserías, 45",0,174,0,27,2024-02-18 15:04:20,-3.7065258846557603,40.39742958306358,"(-3.7065258846557603, 40.39742958306358)"
273,"Calle Jaime el Conquistador nº 30,",02,023,13,6,1581,2,175 - Jaime el Conquistador - Divino Vallés,0,175,0,19,2024-02-18 15:04:20,-3.69834452,40.3962264,"(-3.69834452, 40.3962264)"
274,"Calle Bolívar nº 3,",02,025,8,15,1583,2,177 - Metro Legazpi,0,177,0,23,2024-02-18 15:04:20,-3.6941876374343896,40.391447085678806,"(-3.6941876374343896, 40.391447085678806)"
275,"Calle León Gil de Palacio nº 1,",03,031,9,15,1584,2,178 - Junta Municipal Distrito de Retiro,0,178,0,24,2024-02-18 15:04:20,-3.6788343,40.4029202,"(-3.6788343, 40.4029202)"
276,"Avenida de la Albufera nº 6,",13,132,23,1,1585,1,179 - Metro Puente de Vallecas,0,179,0,24,2024-02-18 15:04:20,-3.6692724,40.3979273,"(-3.6692724, 40.3979273)"
277,"Calle Retama (esquina con calle Acanto),",02,027,13,10,1586,2,180 - Estación Sur Méndez Álvaro B,0,180,0,23,2024-02-18 15:04:20,-3.67589,40.3940423,"(-3.67589, 40.3940423)"
278,"Calle Ibiza nº 16,",03,034,24,3,1587,1,181 - Ibiza - Narváez,0,181,0,27,2024-02-18 15:04:20,-3.676443540475469,40.41816932665331,"(-3.676443540475469, 40.41816932665331)"
279,"Alcalde Sainz de Baranda (esquina con calle de Juan Espladiu),",03,033,2,21,1588,0,182 - Parque Roma,0,182,0,23,2024-02-18 15:04:20,-3.6657777,40.4186666,"(-3.6657777, 40.4186666)"
280,"Calle Hermosilla, 135,",04,042,7,16,1589,0,183 - Hermosilla - Doctor Esquerdo,0,183,0,23,2024-02-18 15:04:20,-3.669339,40.425635,"(-3.669339, 40.425635)"
281,"Paseo del Marqués Zafra, 24 ,",04,043,5,19,1590,0,"184 - Marqués de Zafra, 24",0,184,0,24,2024-02-18 15:04:20,-3.6653055,40.426,"(-3.6653055, 40.426)"
282,"Calle Sancho Dávila, 35 ,",04,043,17,7,1591,1,185 - Quinta Fuente del Berro,0,185,0,24,2024-02-18 15:04:20,-3.6615277,40.4250833,"(-3.6615277, 40.4250833)"
283,"Calle Diego de Leon, 52,",04,045,10,13,1592,2,143 - Diego de León - General Pardiñas,0,143,0,23,2024-02-18 15:04:20,-3.6780802,40.434676,"(-3.6780802, 40.434676)"
284,"Alcala-Ventas ,",04,043,15,8,1593,2,187 - Alejandro González - Alcalá,0,187,0,23,2024-02-18 15:04:20,-3.6638249,40.4301326,"(-3.6638249, 40.4301326)"
285,"Avenida de Daroca, 2 ,",15,151,9,18,1594,2,188 - Puente de Ventas,0,188,0,27,2024-02-18 15:04:20,-3.6590286,40.4312562,"(-3.6590286, 40.4312562)"
286,"Avenida donostiarra,",15,154,10,13,1595,2,189 - Virgen de la Alegría,0,189,0,23,2024-02-18 15:04:20,-3.6554918,40.4351256,"(-3.6554918, 40.4351256)"
287,"Calle Velázquez, 91 ,",04,046,6,17,1596,0,190 - Velázquez - Diego de León,0,190,0,23,2024-02-18 15:04:20,-3.6833753,40.4343053,"(-3.6833753, 40.4343053)"
288,"Calle de Alfonso Heredia, 2 ,",04,044,3,16,1597,0,191 - Metro Diego de León,0,191,0,19,2024-02-18 15:04:20,-3.6740777840614403,40.434569387142616,"(-3.6740777840614403, 40.434569387142616)"
289,"Avenida de los Toreros, 3 ,",04,044,2,25,1598,0,192 - Avda. de los Toreros - Fco. Silvela,0,192,0,27,2024-02-18 15:04:20,-3.6714677183853106,40.431826464468664,"(-3.6714677183853106, 40.431826464468664)"
290,"Avenida De los Toreros, 49 ,",04,044,10,17,1599,2,193 - Plaza de las Ventas,0,193,0,27,2024-02-18 15:04:20,-3.6655555,40.4324722,"(-3.6655555, 40.4324722)"
291,"Calle Francisco Silvela, 87 ,",04,044,0,24,1600,0,194 - Intercambiador de Avenida de América,0,194,0,24,2024-02-18 15:04:20,-3.6771535,40.4372638,"(-3.6771535, 40.4372638)"
292,"Calle Mataelpino, 1 ,",05,052,0,24,1601,0,195 - Indalecio Hernández - Mataelpino,0,195,0,24,2024-02-18 15:04:20,-3.6754444,40.4392222,"(-3.6754444, 40.4392222)"
293,"Calle Suero de Quiñones, 4 ,",05,053,2,25,1602,0,196 - Metro Prosperidad,0,196,0,27,2024-02-18 15:04:20,-3.6752218,40.4442237,"(-3.6752218, 40.4442237)"
294,"Avenida de Concha Espina, 36 ,",05,051,19,4,1603,1,197 - Parque de Berlín,0,197,0,23,2024-02-18 15:04:20,-3.677916,40.4516059,"(-3.677916, 40.4516059)"
295,"Paseo de las Castellana, 33 ,",07,074,12,11,1604,2,198 - Metro Rubén Darío,0,198,0,23,2024-02-18 15:04:20,-3.6891,40.432,"(-3.6891, 40.432)"
296,"Calle Fernando el Católico, 61 ,",07,071,13,14,1605,2,"199 - Fernando el Católico, 61",0,199,0,27,2024-02-18 15:04:20,-3.7149166,40.4343611,"(-3.7149166, 40.4343611)"
297,"Glorieta de Quevedo, 4 ,",07,072,14,10,1606,2,200 - Metro Quevedo,0,200,0,24,2024-02-18 15:04:20,-3.7045789811585417,40.43375360585919,"(-3.7045789811585417, 40.43375360585919)"
298,"Calle José Abascal, 2 ,",07,075,0,23,1607,0,201 - Metro Canal,0,201,0,23,2024-02-18 15:04:20,-3.7038333,40.4386944,"(-3.7038333, 40.4386944)"
299,"Calle de Santander, 1 ,",07,076,15,12,1608,2,202 - Parque de Santander,0,202,0,27,2024-02-18 15:04:20,-3.7083,40.4413,"(-3.7083, 40.4413)"
300,"Calle San Francisco de Sales,",07,076,5,19,1609,0,203 - General Ampudia - San Fco. de Sales,0,203,0,24,2024-02-18 15:04:20,-3.7144722,40.44175,"(-3.7144722, 40.44175)"
301,"Calle Doctor Santero, 1 ,",06,061,7,16,1610,0,204 - Doctor Santero - Bravo Murillo,0,204,0,23,2024-02-18 15:04:20,-3.7040397,40.4476488,"(-3.7040397, 40.4476488)"
302,"Calle Navarra, 1 ,",06,061,18,5,1611,1,205 - Metro Estrecho,0,205,0,23,2024-02-18 15:04:20,-3.7032777,40.4535,"(-3.7032777, 40.4535)"
303,"Calle Marqués de Viana, 3 ,",06,066,4,19,1612,0,206 - Metro Tetuán,0,206,0,23,2024-02-18 15:04:20,-3.698915521426396,40.4607466894426,"(-3.698915521426396, 40.4607466894426)"
304,"Calle Azucenas, 2 ,",06,065,5,14,1613,0,207 - Plaza de la Remonta,0,207,0,19,2024-02-18 15:04:20,-3.6973352,40.4630443,"(-3.6973352, 40.4630443)"
305,"Paseo de la Castellana, 216 ,",05,056,8,10,1614,2,208 - Intercambiador de Plaza de Castilla,0,208,0,18,2024-02-18 15:04:20,-3.6890611,40.4662811,"(-3.6890611, 40.4662811)"
306,"Plaza de Castilla, 9 ,",05,055,6,17,1615,0,209 - Plaza de Castilla - Fundación Canal,0,209,0,23,2024-02-18 15:04:20,-3.6887,40.4657,"(-3.6887, 40.4657)"
307,"Calle de las Tres Cruces,",01,016,2,25,1616,0,210 - Calle de las Tres Cruces - Gran Vía,0,210,0,27,2024-02-18 15:04:20,-3.7027164,40.4196518,"(-3.7027164, 40.4196518)"
308,"Calle de el Desengaño, 4 ,",01,015,18,5,1617,1,211 - Desengaño - Valverde,0,211,0,23,2024-02-18 15:04:20,-3.70239,40.42059,"(-3.70239, 40.42059)"
309,"Glorieta Marqués de Vadillo, 9,",11,113,10,17,1618,2,212 - Metro Marqués de Vadillo,0,212,0,27,2024-02-18 15:04:20,-3.716591,40.398247,"(-3.716591, 40.398247)"
310,"Calle de Antonio López, 129 ,",12,125,14,9,1619,2,213 - Glorieta de Cádiz,0,213,0,23,2024-02-18 15:04:20,-3.7002247,40.3889918,"(-3.7002247, 40.3889918)"
311,"Calle Condesa de Venadito, 2 ,",15,155,11,13,1620,2,214 - Condesa de Venadito - Albacete,0,214,0,24,2024-02-18 15:04:20,-3.6569031,40.4434316,"(-3.6569031, 40.4434316)"
312,"Calle Gutierre de Cetina, 77 ,",15,152,7,16,1621,0,215 - Gutierre de Cetina - Ascao,0,215,0,23,2024-02-18 15:04:20,-3.6408093,40.429588,"(-3.6408093, 40.429588)"
313,"Plaza Puerta del Ángel, 3 ,",10,102,23,4,1622,1,216 - Plaza de Puerta del Ángel,0,216,0,27,2024-02-18 15:04:20,-3.72897,40.4141,"(-3.72897, 40.4141)"
314,"Calle Pedro Rico, 4 ,",08,085,5,18,1623,0,217 - Hospital Universitario La Paz,0,217,0,23,2024-02-18 15:04:20,-3.6890758,40.480884,"(-3.6890758, 40.480884)"
315,"Camino de Vinateros, 28 ,",14,144,23,0,1624,1,218 - Camino de los Vinateros A,0,218,0,23,2024-02-18 15:04:20,-3.6572967,40.4105478,"(-3.6572967, 40.4105478)"
316,"Camino de los Vinateros, 108 ,",14,143,10,8,1625,2,219 - Camino de los Vinateros B,0,219,0,18,2024-02-18 15:04:20,-3.6467338,40.4083593,"(-3.6467338, 40.4083593)"
317,"Calle Arrollo de las Pilillas, 2 ,",14,144,16,8,1626,2,220 - Plaza del Encuentro,0,220,0,24,2024-02-18 15:04:20,-3.651384,40.406156,"(-3.651384, 40.406156)"
318,"Calle Hacienda de Pavones, 148 ,",14,141,21,2,1627,1,221 - Metro Pavones,0,221,0,23,2024-02-18 15:04:20,-3.634744478732248,40.400492026660594,"(-3.634744478732248, 40.400492026660594)"
319,"Calle Eugenio Caxes, 14 ,",12,125,18,5,1628,1,222 - Eugenio Caxes - Antonio López,0,222,0,23,2024-02-18 15:04:20,-3.7026789,40.3917871,"(-3.7026789, 40.3917871)"
320,"Paseo de la Ermita del Santo, 48 ,",10,101,14,13,1629,2,223 - Ermita del Santo,0,223,0,27,2024-02-18 15:04:20,-3.724576,40.406448,"(-3.724576, 40.406448)"
321,"Calle Caramuel, 51 ,",10,102,21,6,1630,1,224 - Parque de Caramuel,0,224,0,27,2024-02-18 15:04:20,-3.7287,40.409,"(-3.7287, 40.409)"
322,"Calle Sierra Toledana, 33 ,",13,136,12,12,1631,2,225 - Sierra Toledana - Doctor Lozano,0,225,0,24,2024-02-18 15:04:20,-3.660345,40.402506,"(-3.660345, 40.402506)"
323,"Camino Valderribas, 94 ,",13,136,18,5,1632,1,226 - Sierra Toledana - Camino de Valderribas,0,226,0,23,2024-02-18 15:04:20,-3.6607768678037744,40.39901531507069,"(-3.6607768678037744, 40.39901531507069)"
324,"Calle Arrollo del Olivar, 3 ,",13,132,14,10,1633,2,"227 - Arroyo del Olivar, 6",0,227,0,24,2024-02-18 15:04:20,-3.6659362429356372,40.39382977920336,"(-3.6659362429356372, 40.39382977920336)"
325,"Calle San Delfín, 10 ,",11,111,2,15,1634,0,228 - San Delfín - Antonio López,0,228,0,18,2024-02-18 15:04:20,-3.7080429728445563,40.39440607959559,"(-3.7080429728445563, 40.39440607959559)"
326,"Calle José del Hierro, 6 ,",15,153,10,13,1635,2,229 - Centro Deportivo Municipal Concepción,0,229,0,23,2024-02-18 15:04:20,-3.6486508,40.4369378,"(-3.6486508, 40.4369378)"
327,"Calle Carlota O'Neill, 30-32 ,",15,155,1,23,1636,0,230 - Carlota O´Neill - Agastia,0,230,0,24,2024-02-18 15:04:20,-3.6488254,40.4436792,"(-3.6488254, 40.4436792)"
328,"Calle Derechos Humanos, 14 ,",15,155,8,16,1637,2,231 - Derechos Humanos - Verdaguer y García,0,231,0,24,2024-02-18 15:04:20,-3.6557193,40.4398283,"(-3.6557193, 40.4398283)"
329,"Calle De José Maria Pereda, 1 ,",15,151,11,16,1638,2,232 - José María de Pereda - Alcalá,0,232,0,27,2024-02-18 15:04:20,-3.6486169,40.4327663,"(-3.6486169, 40.4327663)"
330,"Calle Marqués de Corbera, 12 ,",15,151,9,15,1639,2,233 - El dragón de La Elipa,0,233,0,24,2024-02-18 15:04:20,-3.6555789,40.4229522,"(-3.6555789, 40.4229522)"
331,"Avenida Marques de Corbera, 52 ,",15,151,4,20,1640,0,234 - Metro La Elipa,0,234,0,24,2024-02-18 15:04:20,-3.6510917,40.4261278,"(-3.6510917, 40.4261278)"
332,"Calle del Sodio, 1B ,",02,024,13,10,1641,2,235 - Sodio - Embajadores,0,235,0,23,2024-02-18 15:04:20,-3.691076,40.389041,"(-3.691076, 40.389041)"
333,"Paseo Imperial, 31 ,",02,021,14,13,1642,2,"236 - Paseo Imperial, 20",0,236,0,27,2024-02-18 15:04:20,-3.7170785,40.4075794,"(-3.7170785, 40.4075794)"
334,"Calle Francisco Balseiro nº 1,",06,061,0,0,1643,3,xxx - 237 - Pablo Iglesias,1,xxx,0,0,2024-02-18 15:04:20,-3.710525,40.451333,"(-3.710525, 40.451333)"
335,"CalleSan Germán, 5 ,",06,062,12,12,1644,2,"238 - San Germán, 5",0,238,0,24,2024-02-18 15:04:20,-3.6932611,40.4561825,"(-3.6932611, 40.4561825)"
336,"Calle de Francos Rodríguez, 62 ,",06,066,12,11,1645,2,239 - Francos Rodríguez - José Calvo,0,239,0,23,2024-02-18 15:04:20,-3.7078331,40.4567132,"(-3.7078331, 40.4567132)"
337,"Avenida De Brasilia, 9 ,",04,044,4,19,1646,0,240 - Brasilia - Parque Breogán,0,240,0,23,2024-02-18 15:04:20,-3.66096,40.43666,"(-3.66096, 40.43666)"
338,"Calle Camilo José Cela, 23,",04,044,2,21,1647,0,"241 - Camilo José Cela, 23",0,241,0,23,2024-02-18 15:04:20,-3.66779,40.4378,"(-3.66779, 40.4378)"
339,"Avenida De Bruselas, 56 ,",04,044,2,21,1648,0,242 - Metro Parque de las Avenidas,0,242,0,23,2024-02-18 15:04:20,-3.662928,40.439513,"(-3.662928, 40.439513)"
340,"Calle Cartagena, 34,",04,044,4,19,1649,0,"243 - Cartagena, 34",0,243,0,23,2024-02-18 15:04:20,-3.67012,40.43503,"(-3.67012, 40.43503)"
341,"Calle Isaac Peral, 42 ,",07,076,4,19,1650,0,244 - Hospital Clínico San Carlos,0,244,0,23,2024-02-18 15:04:20,-3.71757,40.44003,"(-3.71757, 40.44003)"
342,"Calle Galileo, 63 ,",07,072,12,12,1651,2,245 - Galileo - Donoso Cortés,0,245,0,24,2024-02-18 15:04:20,-3.7101381,40.4363637,"(-3.7101381, 40.4363637)"
343,"Calle de Santa Engracia, 85-87 ,",07,073,3,24,1652,0,246 - Metro Iglesia,0,246,0,27,2024-02-18 15:04:20,-3.6992484724046637,40.43595788149785,"(-3.6992484724046637, 40.43595788149785)"
344,"Calle de Zurbano, 90 ,",07,075,6,17,1653,0,247 - Zurbano - José Abascal,0,247,0,23,2024-02-18 15:04:20,-3.69281,40.43837,"(-3.69281, 40.43837)"
345,"Calle de Sinesio Delgado, 2 ,",08,085,11,16,1654,2,248 - Sinesio Delgado - Cuatro Torres ,0,248,0,27,2024-02-18 15:04:20,-3.6879973,40.4743209,"(-3.6879973, 40.4743209)"
346,"Paseo de la Castellana, 298 ,",05,056,14,10,1655,2,249 - Castellana - Cuatro Torres,0,249,0,24,2024-02-18 15:04:20,-3.6853186,40.4795018,"(-3.6853186, 40.4795018)"
347,"Calle Serrano, 111 ,",05,051,15,12,1656,2,250 - Serrano - CSIC,0,250,0,27,2024-02-18 15:04:20,-3.6858096,40.4406491,"(-3.6858096, 40.4406491)"
348,"Calle Santa Hortensia, 31 ,",05,052,4,19,1657,0,251 - Santa Hortensia - Corazón de María,0,251,0,23,2024-02-18 15:04:20,-3.66683,40.44421,"(-3.66683, 40.44421)"
349,"Calle Agustín de Foxá, 40 ,",05,056,1,22,1658,0,252 - Estación Chamartín - Clara Campoamor,0,252,0,23,2024-02-18 15:04:20,-3.6839695,40.4717403,"(-3.6839695, 40.4717403)"
350,"Calle del Doctor Fleming, 7 ,",05,054,13,6,1659,2,253 - Doctor Fleming - Estadio S. Bernabéu,0,253,0,19,2024-02-18 15:04:20,-3.68844,40.45546,"(-3.68844, 40.45546)"
351,"Avenida De Pio XII, 3 ,",05,055,10,13,1660,2,254 - Plaza del Perú,0,254,0,23,2024-02-18 15:04:20,-3.67656,40.461,"(-3.67656, 40.461)"
352,"Calle General López pozas, 2 ,",05,055,10,13,1661,2,255 - General López Pozas - Apolonio Morales,0,255,0,23,2024-02-18 15:04:20,-3.685292,40.46361,"(-3.685292, 40.46361)"
353,"Calle Beatriz de Bobadilla, 4 ,",09,093,9,14,1662,2,256 - Reina Victoria - Beatriz de Bobadilla,0,256,0,23,2024-02-18 15:04:20,-3.71383,40.44635,"(-3.71383, 40.44635)"
354,"Avenida Juan Herrera, 1 ,",09,093,21,2,1663,1,257 - Ciudad Universitaria - INEF,0,257,0,23,2024-02-18 15:04:20,-3.730527,40.438873,"(-3.730527, 40.438873)"
355,"Ciudad Universitaria, 1 ,",09,093,7,17,1664,0,258 - Metro Ciudad Universitaria A,0,258,0,24,2024-02-18 15:04:20,-3.726939,40.444311,"(-3.726939, 40.444311)"
356,"Ciudad Universitaria, 2 ,",09,093,9,10,1665,2,259 - Metro Ciudad Universitaria B,0,259,0,19,2024-02-18 15:04:20,-3.726752004160312,40.44270528449462,"(-3.726752004160312, 40.44270528449462)"
357,"Facultad de Biología,",09,093,8,16,1666,2,260 - Ciudad Universitaria - Fac. de Biología,0,260,0,24,2024-02-18 15:04:20,-3.7272945,40.4483322,"(-3.7272945, 40.4483322)"
358,"Avenida Complutense, 21 ,",09,093,3,20,1667,0,261 - Ciudad Universitaria - Facultad Derecho,0,261,0,23,2024-02-18 15:04:20,-3.7296756,40.4505516,"(-3.7296756, 40.4505516)"
359,"Amparo Usera , 46,",12,125,15,8,1951,2,"384 - Amparo Usera , 46",0,384,0,23,2024-02-18 15:04:20,-3.7061449,40.38707469,"(-3.7061449, 40.38707469)"
360,"Doctor Tolosa Latour, 7,",12,127,5,18,1952,0,"388 - Doctor Tolosa Latour, 7",0,388,0,23,2024-02-18 15:04:20,-3.70041478,40.37837955,"(-3.70041478, 40.37837955)"
361,"Calle Campotejar , 25,",12,122,17,6,1953,1,"385 - Calle Campotejar , 25",0,385,0,23,2024-02-18 15:04:20,-3.70388671,40.36721104,"(-3.70388671, 40.36721104)"
362,"Isabelita Usera, 44,",12,127,11,12,1954,2,"387 - Isabelita Usera, 44",0,387,0,23,2024-02-18 15:04:20,-3.70773972,40.38272256,"(-3.70773972, 40.38272256)"
363,"Avenida de la Perla, 35,",12,123,8,15,1955,2,"383 - Avenida de la Perla, 35",0,383,0,23,2024-02-18 15:04:20,-3.6939702,40.3700017,"(-3.6939702, 40.3700017)"
364,"Avenida de los Poblados, 130,",12,121,19,4,1956,1,"386 - Avenida de los Poblados, 130",0,386,0,23,2024-02-18 15:04:20,-3.71331521,40.37347443,"(-3.71331521, 40.37347443)"
365,"Avenida Ramon y Cajal, 101,",15,157,15,8,1957,2,"476 - Avenida Ramon y Cajal, 101",0,476,0,23,2024-02-18 15:04:20,-3.662016,40.453493,"(-3.662016, 40.453493)"
366,"Misterios,1,",15,153,14,9,1958,2,"477 - Misterios, 1",0,477,0,23,2024-02-18 15:04:20,-3.638904,40.438278,"(-3.638904, 40.438278)"
367,"Jose del Hierro , 69,",15,154,14,9,1959,2,"478 - Jose del Hierro , 69",0,478,0,23,2024-02-18 15:04:20,-3.6410572,40.44152084,"(-3.6410572, 40.44152084)"
368,"Angel Muñoz, 1,",15,156,14,13,1960,2,"479 - Angel Muñoz, 1",0,479,0,27,2024-02-18 15:04:20,-3.6558371312827975,40.45478362295884,"(-3.6558371312827975, 40.45478362295884)"
369,"Vicente Muzas, 12,",15,157,1,22,1961,0,"480 - Vicente Muzas, 12",0,480,0,23,2024-02-18 15:04:20,-3.66044255,40.45903315,"(-3.66044255, 40.45903315)"
370,"Diego Ayllon, 2,",15,156,9,14,1962,2,"481 - Diego Ayllon, 2",0,481,0,23,2024-02-18 15:04:20,-3.65219063,40.45117857,"(-3.65219063, 40.45117857)"
371,"Calle Velero (metro el capricho), 17,Comunidad de Madrid España",21,211,12,15,1963,2,"554 - Calle Velero (metro el capricho), 17",0,554,0,27,2024-02-18 15:04:20,-3.5941,40.453,"(-3.5941, 40.453)"
372,"Avda. de Burgos, 17 ,",05,056,11,12,1964,2,"284 - Avenida de Burgos, 17",0,284,0,23,2024-02-18 15:04:20,-3.6757900294303902,40.473593878889254,"(-3.6757900294303902, 40.473593878889254)"
373,"Campuzano, 1,",15,152,7,16,1965,0,"482 - Campuzano, 2",0,482,0,23,2024-02-18 15:04:20,-3.6423386,40.4356873,"(-3.6423386, 40.4356873)"
374,"Calle Marcelino Alvarez, 35,",15,151,10,13,1966,2,"483 - Calle Marcelino Alvarez, 35",0,483,0,23,2024-02-18 15:04:20,-3.6534324,40.4297428,"(-3.6534324, 40.4297428)"
375,"Calle Luis Campos, 3,",15,152,8,15,1967,2,"484 - Calle Luis Campos, 3",0,484,0,23,2024-02-18 15:04:20,-3.632389,40.42893071,"(-3.632389, 40.42893071)"
376,"Calle de la Carretera de Canillas, 40,",16,163,12,11,1968,2,"523 - Calle de la Carretera de Canillas, 40",0,523,0,23,2024-02-18 15:04:20,-3.65089253,40.4628701,"(-3.65089253, 40.4628701)"
377,"Calle Santa María Magdalena, 15 ,",05,055,9,14,1969,2,285 - Santa María Magdalena - La Drácena,0,285,0,23,2024-02-18 15:04:20,-3.6706,40.4631,"(-3.6706, 40.4631)"
378,"Plaza Duque de Pastrana, 2 ,",05,056,8,15,1970,2,286 - Plaza Duque de Pastrana ,0,286,0,23,2024-02-18 15:04:20,-3.6779,40.4679,"(-3.6779, 40.4679)"
379,"Calle de la Yuca, 1,",05,056,2,21,1971,0,287 - Metro Bambú,0,287,0,23,2024-02-18 15:04:20,-3.6762,40.4765,"(-3.6762, 40.4765)"
380,"Calle Caídos de la División Azul, 28 ,",05,055,5,18,1972,0,288 - Caídos de la División Azul,0,288,0,23,2024-02-18 15:04:20,-3.6723,40.4664,"(-3.6723, 40.4664)"
381,"Glorieta Luis Rosales, sn,",16,164,5,18,1973,0,"524 - Glorieta Luis Rosales, sn",0,524,0,23,2024-02-18 15:04:20,-3.6543,40.4673,"(-3.6543, 40.4673)"
382,"Fuente Carrantona , 33,",14,143,11,16,1974,2,"460 - Fuente Carrantona , 33",0,460,0,27,2024-02-18 15:04:20,-3.63192261,40.4070216,"(-3.63192261, 40.4070216)"
383,"Luis de Hoyos Sainz, 198,",14,141,8,15,1975,2,455 - Luis de Hoyos Sainz  198,0,455,0,23,2024-02-18 15:04:20,-3.62927465,40.400094,"(-3.62927465, 40.400094)"
384,"Encomienda de Palacios, 8,",14,145,0,23,1976,0,"456 - Encomienda de Palacios, 8",0,456,0,23,2024-02-18 15:04:20,-3.6464,40.4005,"(-3.6464, 40.4005)"
385,"Calle Ramirez Tome, 31,",13,135,11,16,1977,2,"416 - Calle Ramirez Tome, 31",0,416,0,27,2024-02-18 15:04:20,-3.6459739361763055,40.38875618103898,"(-3.6459739361763055, 40.38875618103898)"
386,"Calle de Romeo y Julieta, 12,",13,133,25,2,1978,1,"417 - Calle de Romeo y Julieta, 12",0,417,0,27,2024-02-18 15:04:20,-3.66217563,40.37873799,"(-3.66217563, 40.37873799)"
387,"Calle Puerto de Arlaban, 83,",13,132,9,18,1979,2,"418 - Calle Puerto de Arlaban, 83",0,418,0,27,2024-02-18 15:04:20,-3.6675,40.3864,"(-3.6675, 40.3864)"
388,"Calle Cronos , 14,",20,201,23,4,1980,1,"496 - Calle Cronos , 14",0,496,0,27,2024-02-18 15:04:20,-3.6194333,40.4384695,"(-3.6194333, 40.4384695)"
389,"Hermanos Garcia Noblejas, 133,",20,204,9,14,1981,2,501 - Hermanos Garcia Noblejas 133,0,501,0,23,2024-02-18 15:04:20,-3.6242,40.4191,"(-3.6242, 40.4191)"
390,"Calle Alcalá, 546,",20,201,11,16,1982,2,"498 - Calle Alcala, 546",0,498,0,27,2024-02-18 15:04:20,-3.6178317,40.44313349999999,"(-3.6178317, 40.44313349999999)"
391,"Calle Alcala, 590,",20,207,16,7,1983,2,"499 - Calle Alcala, 590",0,499,0,23,2024-02-18 15:04:20,-3.6121996,40.4466561,"(-3.6121996, 40.4466561)"
392,"Calle Aracne, 17,",20,206,5,22,1984,0,"500 - Calle Aracne, 17",0,500,0,27,2024-02-18 15:04:20,-3.5895,40.445,"(-3.5895, 40.445)"
393,"Calle Alcalá, 506,",20,201,6,17,1985,0,"497 - Calle Alcala, 506",0,497,0,23,2024-02-18 15:04:20,-3.6274,40.4407,"(-3.6274, 40.4407)"
394,"Calle Puerto Serrano, 1 enfrente del nº 6 ,",02,024,3,20,1986,0,265 - Puerto Serrano - Embajadores,0,265,0,23,2024-02-18 15:04:20,-3.688461,40.385412,"(-3.688461, 40.385412)"
395,"Calle Comandante Fontanes, 1,",11,113,10,13,1987,2,"351 - Calle Comandante Fontanes, 1",0,351,0,23,2024-02-18 15:04:20,-3.7211209,40.3951415,"(-3.7211209, 40.3951415)"
396,"Calle de Ervigio,",11,113,18,5,1988,1,350 - Calle de Ervigio,0,350,0,23,2024-02-18 15:04:20,-3.7315,40.3947,"(-3.7315, 40.3947)"
397,"Julio Merino, 5,",12,124,12,11,1989,2,"389 - Julio Merino, 5",0,389,0,23,2024-02-18 15:04:20,-3.7032,40.3831,"(-3.7032, 40.3831)"
398,"Calle de la Avena, 10,",12,126,9,14,1990,2,"390 - Calle de la Avena, 10",0,390,0,23,2024-02-18 15:04:20,-3.7159,40.3773,"(-3.7159, 40.3773)"
399,"Avenida de Cantabria, 6,",21,211,20,4,1991,1,"556 - Avenida de Cantabria, 6",0,556,0,24,2024-02-18 15:04:20,-3.58772201,40.45462514,"(-3.58772201, 40.45462514)"
400,"Paseo de la Alameda de Osuna, 48,",21,211,20,7,1992,1,"555 - Paseo de la Alameda de Osuna, 48",0,555,0,27,2024-02-18 15:04:20,-3.59812171,40.45476837,"(-3.59812171, 40.45476837)"
401,"Francisco Villaespesa, 39,",15,151,11,12,1993,2,485 - Francisco Villaespesa  39,0,485,0,23,2024-02-18 15:04:20,-3.6464629,40.4293263,"(-3.6464629, 40.4293263)"
402,"Calle Arzobispo Morcillo, 6,",08,085,11,16,1994,2,"570 - Calle Arzobispo Morcillo, 6",0,570,0,27,2024-02-18 15:04:20,-3.6938,40.4815,"(-3.6938, 40.4815)"
403,"Calle Hernani, 59 ,",06,062,5,18,1995,0,295 - Hernani - Edgar Neville,0,295,0,23,2024-02-18 15:04:20,-3.6972,40.4481,"(-3.6972, 40.4481)"
404,"Calle de la Costa Verde, 25-23 ,",06,064,16,7,1996,2,"296 - Costa Verde, 24",0,296,0,23,2024-02-18 15:04:20,-3.696862,40.469477,"(-3.696862, 40.469477)"
405,"Calle Simancas, 2,",06,064,6,17,1997,0,297 - Simancas - Pinos Alta,0,297,0,23,2024-02-18 15:04:20,-3.69511298,40.4655,"(-3.69511298, 40.4655)"
406,"Calle Gallur, 5,",10,101,19,4,1998,1,323 - Centro Deportivo Municipal Gallur,0,323,0,23,2024-02-18 15:04:20,-3.7359,40.3984,"(-3.7359, 40.3984)"
407,"Calle de las Higueras, 49,",10,103,9,14,1999,2,324 - Metro Lucero,0,324,0,23,2024-02-18 15:04:20,-3.745096152114864,40.40457132475174,"(-3.745096152114864, 40.40457132475174)"
408,"Hacienda de Pavones, 148,",14,145,16,7,2000,2,"457 - Hacienda de Pavones, 148",0,457,0,23,2024-02-18 15:04:20,-3.6419,40.4026,"(-3.6419, 40.4026)"
409,"Calle de la Maquinilla,",13,134,14,10,2001,2,432 - Calle de la Maquinilla,0,432,0,24,2024-02-18 15:04:20,-3.63648424,40.38078101,"(-3.63648424, 40.38078101)"
410,"Calle Marqués de Viana, 85 ,",06,066,8,11,2002,2,298 - Marques de Viana - Bellver,0,298,0,19,2024-02-18 15:04:20,-3.704478,40.463643,"(-3.704478, 40.463643)"
411,"C Sierra de Guadalupe, 11,",18,181,21,6,2003,1,"437 - C Sierra de Guadalupe, 11",0,437,0,27,2024-02-18 15:04:20,-3.62376457,40.38135158,"(-3.62376457, 40.38135158)"
412,"Calle de la Verdad, 14c,",11,112,17,6,2004,1,"358 - Calle de la Verdad, 14c",0,358,0,23,2024-02-18 15:04:20,-3.71716,40.391787,"(-3.71716, 40.391787)"
413,"Calle Algorta, 2,",11,113,13,10,2005,2,"352 - Calle Algorta, 2",0,352,0,23,2024-02-18 15:04:20,-3.72745169,40.39162261454714,"(-3.72745169, 40.39162261454714)"
414,"Fernando Gabriel , 5,",15,152,9,15,2006,2,"492 - Fernando Gabriel , 5",0,492,0,24,2024-02-18 15:04:20,-3.63949891,40.42466356,"(-3.63949891, 40.42466356)"
415,"Paseo de los Jesuitas, 69 ,",10,102,7,20,2007,0,322 - P.o. Jesuitas - M. Alto Extremadura,0,322,0,27,2024-02-18 15:04:20,-3.7351,40.408,"(-3.7351, 40.408)"
416,"Avenida Cordoba, 21,",12,124,13,10,2008,2,"392 - Avenida Cordoba, 21",0,392,0,23,2024-02-18 15:04:20,-3.697856,40.38268,"(-3.697856, 40.38268)"
417,"Calle de Candilejas, 5,",13,133,16,7,2009,2,"420 - Calle de Candilejas, 5",0,420,0,23,2024-02-18 15:04:20,-3.66300383,40.38263599,"(-3.66300383, 40.38263599)"
418,"Calle Puerto de Balbaran, 10,",13,133,22,5,2010,1,"419 - Calle Puerto de Balbaran, 10",0,419,0,27,2024-02-18 15:04:20,-3.655868,40.3762374,"(-3.655868, 40.3762374)"
419,"Calle de Cabeza Mesada, 5,",18,183,15,11,2011,2,"439 - Calle de Cabeza Mesada, 5",0,439,0,27,2024-02-18 15:04:20,-3.629413,40.37647902,"(-3.629413, 40.37647902)"
420,"Avenida de Orovilla, 53,",17,174,10,17,2012,2,"398 - Avenida de Orovilla, 53",0,398,0,27,2024-02-18 15:04:20,-3.6895,40.3587,"(-3.6895, 40.3587)"
421,"Avenida Monforte de Lemos, 17,",08,085,12,11,2013,2,"569 - Avenida Monforte de Lemos, 17",0,569,0,23,2024-02-18 15:04:20,-3.6965,40.4795,"(-3.6965, 40.4795)"
422,"Calle Melchor Fernandez Almagro, 80,",08,084,6,17,2014,0,"571 - Calle Melchor Fernandez Almagro, 80",0,571,0,23,2024-02-18 15:04:20,-3.710326199999999,40.4756475,"(-3.710326199999999, 40.4756475)"
423,"Calle Valle de Mena, 5,",09,094,10,13,2015,2,"304 - Valle de Mena, 5",0,304,0,23,2024-02-18 15:04:20,-3.71527245,40.46962735,"(-3.71527245, 40.46962735)"
424,"Calle del Cobre, 6 ,",02,025,11,12,2017,2,268 - Metro Arganzuela-Planetario,0,268,0,23,2024-02-18 15:04:20,-3.689031463575172,40.39338327980599,"(-3.689031463575172, 40.39338327980599)"
425,"Paseo de la Florida, 37,",09,091,7,16,2019,0,305 - Intercambiador de Príncipe Pío B,0,305,0,23,2024-02-18 15:04:20,-3.72317757,40.42276114,"(-3.72317757, 40.42276114)"
426,"Avenida Del Santo Ángel de la Guarda, 6 ,",09,094,8,15,2020,2,306 - CDM Fernando Martín,0,306,0,23,2024-02-18 15:04:20,-3.7121965,40.4617959,"(-3.7121965, 40.4617959)"
427,"Calle Serrano Galvache,",15,159,3,20,2021,0,486 - Calle Serrano Galvache,0,486,0,23,2024-02-18 15:04:20,-3.6679379,40.471382,"(-3.6679379, 40.471382)"
428,"Calle Puertollano,",20,208,13,10,2022,2,502  - Calle Puertollano,0,502,0,23,2024-02-18 15:04:20,-3.6237372,40.4425157,"(-3.6237372, 40.4425157)"
429,"Calle Gallegos,",19,191,26,1,2023,1,462 - Calle Gallegos,0,462,0,27,2024-02-18 15:04:20,-3.6102747,40.40240379,"(-3.6102747, 40.40240379)"
430,"Calle del Arroyo del Olivar, 63,",13,133,10,14,2024,2,"421 - Arroyo del Olivar, 63",0,421,0,24,2024-02-18 15:04:20,-3.653269,40.388435,"(-3.653269, 40.388435)"
431,"Calle Manuel Uribe, 1,",15,158,3,20,2025,0,"487 - Calle Manuel Uribe, 1",0,487,0,23,2024-02-18 15:04:20,-3.66503419,40.46434131,"(-3.66503419, 40.46434131)"
432,"422 - Travesia de Palomeras, 7,",13,132,8,16,2026,2,"422 - Travesia de Palomeras, 7",0,422,0,24,2024-02-18 15:04:20,-3.6705179,40.39017003,"(-3.6705179, 40.39017003)"
433,"Avenida de Entrevias, 56,",13,131,14,10,2027,2,"423 - Avenida de Entrevias, 56",0,423,0,24,2024-02-18 15:04:20,-3.66855013,40.38138801,"(-3.66855013, 40.38138801)"
434,"Camino de Valderribas, 47,",13,136,17,7,2028,1,"424 - Camino de Valderribas, 47",0,424,0,24,2024-02-18 15:04:20,-3.663958,40.4002231,"(-3.663958, 40.4002231)"
435,"Calle Ramon Perez de Ayala, 45,",13,136,4,20,2029,0,"425 - Calle Ramon Perez de Ayala, 45",0,425,0,24,2024-02-18 15:04:20,-3.65381017,40.40003472,"(-3.65381017, 40.40003472)"
436,"Calle Humanes, 3,",13,135,13,11,2030,2,"426 - Calle Humanes, 3",0,426,0,24,2024-02-18 15:04:20,-3.64932678,40.3952121,"(-3.64932678, 40.3952121)"
437,"Calle de los Andaluces, 2,",13,134,13,11,2031,2,"427 - Calle de los Andaluces, 2",0,427,0,24,2024-02-18 15:04:20,-3.64148304,40.3914244,"(-3.64148304, 40.3914244)"
438,"Avenida de la Albufera,",13,133,24,0,2032,1,"428 - Avenida de la Albufera, 136",0,428,0,24,2024-02-18 15:04:20,-3.6571,40.3919,"(-3.6571, 40.3919)"
439,"Manuel Noya , 29,",12,125,7,17,2033,0,"393 - Manuel Noya , 29",0,393,0,24,2024-02-18 15:04:20,-3.7117979,40.3853787,"(-3.7117979, 40.3853787)"
440,"Serrano Galvache, 56,",15,159,12,12,2034,2,"489 - Serrano Galvache, 56",0,489,0,24,2024-02-18 15:04:20,-3.67144504,40.47675257,"(-3.67144504, 40.47675257)"
441,"Hermanos Garcia Noblejas, 158,",15,152,11,13,2035,2,"490 - Hermanos Garcia Noblejas, 158",0,490,0,24,2024-02-18 15:04:20,-3.62888094,40.42427523,"(-3.62888094, 40.42427523)"
442,"Calle Ricardo Ortiz, 33,",15,151,7,17,2036,0,"488 - Calle Ricardo Ortiz, 33",0,488,0,24,2024-02-18 15:04:20,-3.65796439,40.42657032,"(-3.65796439, 40.42657032)"
443,"Calle de Bacares, 20,",16,165,7,17,2037,0,"525 - Calle de Bacares, 20",0,525,0,24,2024-02-18 15:04:20,-3.66269029,40.47675499,"(-3.66269029, 40.47675499)"
444,"Calle de San Roman del Valle, 20,",20,204,10,14,2038,2,"504 - Calle de San Roman del Valle, 20",0,504,0,24,2024-02-18 15:04:20,-3.623466935545257,40.42309928573645,"(-3.623466935545257, 40.42309928573645)"
445,"Calle Zaldivar,",20,201,3,21,2039,0,503 - Calle Zaldivar,0,503,0,24,2024-02-18 15:04:20,-3.62650373,40.43209033,"(-3.62650373, 40.43209033)"
446,"Arroyo Bueno, 53,",17,171,5,22,2040,0,"404 -  Arroyo Bueno, 53",0,404,0,27,2024-02-18 15:04:20,-3.710985,40.349111,"(-3.710985, 40.349111)"
447,"Calle Mercedes Arteaga, 21,",11,112,16,8,2041,2,"353 - Calle Mercedes Arteaga, 21",0,353,0,24,2024-02-18 15:04:20,-3.722217570475459,40.39251608002938,"(-3.722217570475459, 40.39251608002938)"
448,"Calle de la Via,",11,112,22,2,2042,1,"355 - Calle de la Via, 52",0,355,0,24,2024-02-18 15:04:20,-3.7182338,40.3854641,"(-3.7182338, 40.3854641)"
449,"Calle Francisco Tejada, 1 ,",10,102,21,3,2043,1,326 - Metro Alto de Extremadura,0,326,0,24,2024-02-18 15:04:20,-3.739615781020349,40.40937950320982,"(-3.739615781020349, 40.40937950320982)"
450,"Calle El Greco, 27 ,",10,103,15,9,2044,2,"327 - El Greco, 27 - C. Cultural El Greco",0,327,0,24,2024-02-18 15:04:20,-3.74726153,40.40741199,"(-3.74726153, 40.40741199)"
451,"Calle del Arroyo Belincoso, 26,",14,143,12,12,2045,2,"458 - Calle del Arroyo Belincoso, 26",0,458,0,24,2024-02-18 15:04:20,-3.65256604,40.40991083,"(-3.65256604, 40.40991083)"
452,"Avenida Moratalaz, 25,",14,144,10,14,2046,2,"459 - Avenida Moratalaz, 25",0,459,0,24,2024-02-18 15:04:20,-3.66000272,40.40750626,"(-3.66000272, 40.40750626)"
453,"Corregidor licenciado Antonio de Mena, sn,",14,143,4,20,2047,0,"461 - Corregidor Ldo. Antonio de Mena, sn",0,461,0,24,2024-02-18 15:04:20,-3.6408,40.4099,"(-3.6408, 40.4099)"
454,"Calle Portalegre, 7,",11,112,15,9,2048,2,"356 - Calle Portalegre, 7",0,356,0,24,2024-02-18 15:04:20,-3.72364769,40.38937686,"(-3.72364769, 40.38937686)"
455,"Avenida Monforte de Lemos, 123,",08,084,4,20,2049,0,"572 - Avenida Monforte de Lemos, 123",0,572,0,24,2024-02-18 15:04:20,-3.70997335,40.47810429,"(-3.70997335, 40.47810429)"
456,"Calle Melchor Fernandez Almagro, 16,",08,085,7,17,2050,0,"573 - Calle Melchor Fernandez Almagro, 16",0,573,0,24,2024-02-18 15:04:20,-3.69962571,40.47772776,"(-3.69962571, 40.47772776)"
457,"Ginzo de Limia, 36,",08,085,10,14,2051,2,575 - Ginzo de Limia  36,0,575,0,24,2024-02-18 15:04:20,-3.703526,40.47817,"(-3.703526, 40.47817)"
458,"Calle Chantada, 2,",08,084,7,17,2052,0,"574 - Chantada, 2",0,574,0,24,2024-02-18 15:04:20,-3.710678,40.472695,"(-3.710678, 40.472695)"
459,"Paseo de Federico Garcia Lorca, 4,",18,181,15,3,2053,1,"440 - Paseo de Federico Garcia Lorca, 4",0,440,0,18,2024-02-18 15:04:20,-3.62144691,40.3795035,"(-3.62144691, 40.3795035)"
460,"Calle Seis, sn,",20,206,10,14,2054,2,"507 - Calle Seis, sn",0,507,0,24,2024-02-18 15:04:20,-3.59650295,40.44845033,"(-3.59650295, 40.44845033)"
461,"Calle Rosario Pino, 17 ,",06,063,10,14,2055,2,299 - Rosario Pino - Joan Maragall,0,299,0,24,2024-02-18 15:04:20,-3.69193246,40.46204955,"(-3.69193246, 40.46204955)"
462,"Calle Capitan Blanco Argibay, 112 ,",06,065,1,23,2056,0,300 - Capitan Blanco Argibay - Alfalfa,0,300,0,24,2024-02-18 15:04:20,-3.7031882,40.4667435,"(-3.7031882, 40.4667435)"
463,"Calle Muller, 34 ,",06,065,5,19,2057,0,301 - Muller - Capitan Blanco Argibay,0,301,0,24,2024-02-18 15:04:20,-3.69837565,40.46518187,"(-3.69837565, 40.46518187)"
464,"Gran Avenida, 27,",12,121,19,5,2059,1,"396 - Gran Avenida, 27",0,396,0,24,2024-02-18 15:04:20,-3.70760649,40.36997711,"(-3.70760649, 40.36997711)"
465,"Periana, 24,",12,123,21,3,2060,1,"394 - Periana, 24",0,394,0,24,2024-02-18 15:04:20,-3.68765805,40.36672327,"(-3.68765805, 40.36672327)"
466,"Calle de Moreja, 30,",12,122,23,1,2061,1,"397 - Calle de Moreja, 30",0,397,0,24,2024-02-18 15:04:20,-3.69838038,40.36809336,"(-3.69838038, 40.36809336)"
467,"Calle de Bohemios, 1,",17,175,15,9,2062,2,"399 - Calle de Bohemios, 1",0,399,0,24,2024-02-18 15:04:20,-3.693901,40.356536,"(-3.693901, 40.356536)"
468,"Calle de Torremolinos, 2,",13,134,9,15,2063,2,"430 - Calle de Torremolinos, 2",0,430,0,24,2024-02-18 15:04:20,-3.64178999,40.38500948,"(-3.64178999, 40.38500948)"
469,"Calle Ariel, 11 ,",02,024,23,1,2064,1,"269 - Ariel, 7 - Parque Enrique Tierno Galván",0,269,0,24,2024-02-18 15:04:20,-3.67970176633988,40.393023802369754,"(-3.67970176633988, 40.393023802369754)"
470,"Calle Esteban Collantes 63,",15,152,4,20,2065,0,491 - Esteban Collantes 63,0,491,0,24,2024-02-18 15:04:20,-3.637663,40.432883,"(-3.637663, 40.432883)"
471,"Calle de Velacho Alto, 2,",16,165,8,16,2066,2,"527 - Calle de Velacho Alto, 2",0,527,0,24,2024-02-18 15:04:20,-3.65926884,40.47250314,"(-3.65926884, 40.47250314)"
472,"Plaza del Liceo,",16,163,6,18,2067,0,526 - Plaza del Liceo,0,526,0,24,2024-02-18 15:04:20,-3.64441924,40.45754368,"(-3.64441924, 40.45754368)"
473,"Puerto del Canfranc, 18,",13,136,6,18,2068,0,"431 - Puerto del Canfranc, 18",0,431,0,24,2024-02-18 15:04:20,-3.6634,40.3969,"(-3.6634, 40.3969)"
474,"Calle de Carlos Martin Alvarez, 38,",13,133,10,13,2069,2,"429 - Calle de Carlos Martin Alvarez, 38",0,429,0,23,2024-02-18 15:04:20,-3.6635,40.3895,"(-3.6635, 40.3895)"
475,"Calle del Sorbe , 20,",11,111,13,11,2070,2,"357 - Calle del Sorbe , 20",0,357,0,24,2024-02-18 15:04:20,-3.71320917,40.3898701,"(-3.71320917, 40.3898701)"
476,"Calle Teresa López Valcarcel (esquina calle Teniente Coronel Noreña),",02,024,18,6,2071,1,270 - Teresa L. Valcárcel - Tte. Cnel. Noreña,0,270,0,24,2024-02-18 15:04:20,-3.69328771,40.38862908,"(-3.69328771, 40.38862908)"
477,"Arturo Soria, 312,",15,159,3,20,2072,0,"493. - 493 -Arturo Soria, 312",0,493.,0,23,2024-02-18 15:04:20,-3.6684167,40.47636724,"(-3.6684167, 40.47636724)"
478,"Calle de Villalobos, 28,",13,134,5,19,2073,0,"433 - Calle de Villalobos, 28",0,433,0,24,2024-02-18 15:04:20,-3.65076037,40.38161669,"(-3.65076037, 40.38161669)"
479,"Calle de Alan Turing,",13,134,17,6,2074,1,436 - Calle de Alan Turing,0,436,0,23,2024-02-18 15:04:20,-3.62713659,40.3901675,"(-3.62713659, 40.3901675)"
480,"Calle Charleroi,",13,134,16,8,2075,2,434 - Calle Charleroi,0,434,0,24,2024-02-18 15:04:20,-3.63219372,40.38191654,"(-3.63219372, 40.38191654)"
481,"Calle Albarracin, sn,",20,201,3,21,2076,0,"506 - Calle Albarracin, s/n",0,506,0,24,2024-02-18 15:04:20,-3.63251641,40.43397327,"(-3.63251641, 40.43397327)"
482,"Calle Castillo de Ucles, 37,",20,201,14,10,2077,2,"505 - Calle Castillo de Ucles, 37",0,505,0,24,2024-02-18 15:04:20,-3.62306578,40.4315255,"(-3.62306578, 40.4315255)"
483,"Calle San Claudio, 154,",13,134,12,12,2078,2,"435 - Calle San Claudio, 154",0,435,0,24,2024-02-18 15:04:20,-3.63953994,40.38902883,"(-3.63953994, 40.38902883)"
484,"Calle Alcala  (acera de tránsito peatonal),",20,207,0,0,2079,3,508 - Alcala  (acera de tránsito peatonal),1,508,0,0,2024-02-18 15:04:20,-3.60960104,40.44910362,"(-3.60960104, 40.44910362)"
485,"Paseo de la Dirección, 330, (enfrente) ,",06,065,10,14,2080,2,302 - P. Dirección B - Pque A. Rguez Sahagún,0,302,0,24,2024-02-18 15:04:20,-3.703955,40.4702445774,"(-3.703955, 40.4702445774)"
486,"Calle Casalarreina,",19,191,15,9,2081,2,463 - Calle Casalarreina 18,0,463,0,24,2024-02-18 15:04:20,-3.6123187980524585,40.40939089860396,"(-3.6123187980524585, 40.40939089860396)"
487,"Avenida de Daroca 321,",19,191,12,12,2082,2,"464 - Avenida de Daroca, 321",0,464,0,24,2024-02-18 15:04:20,-3.61283416,40.40634029,"(-3.61283416, 40.40634029)"
488,"Paseo de los Gigantes y Cabezudos, 4,",17,175,13,11,2083,2,"400 - Paseo de los Gigantes y Cabezudos, 4",0,400,0,24,2024-02-18 15:04:20,-3.69399661,40.36064659,"(-3.69399661, 40.36064659)"
489,"Calle San Restituto, 74,",09,094,2,22,2084,0,307 - Metro Valdezarza,0,307,0,24,2024-02-18 15:04:20,-3.71693008,40.46588016,"(-3.71693008, 40.46588016)"
490,"Paseo de la Dirección, 161,",06,065,3,21,2085,0,303 - P. Dirección A - Pque A. Rguez Sahagún,0,303,0,24,2024-02-18 15:04:20,-3.7080850848120273,40.46778929738312,"(-3.7080850848120273, 40.46778929738312)"
491,"Avenida El Ferrol, 18,",08,084,6,18,2086,0,"576 - Avenida El Ferrol, 18",0,576,0,24,2024-02-18 15:04:20,-3.70510525,40.47431313,"(-3.70510525, 40.47431313)"
492,"577 - Calle Monforte de Lemos, 103,",08,084,10,14,2087,2,"577 - Calle Monforte de Lemos, 103",0,577,0,24,2024-02-18 15:04:20,-3.70566914,40.47899993,"(-3.70566914, 40.47899993)"
493,"Calle Ofelia Nieto, 75,",09,094,13,11,2088,2,309 - Ofelia Nieto - Villaamil,0,309,0,24,2024-02-18 15:04:20,-3.708734,40.462051,"(-3.708734, 40.462051)"
494,"Calle María Auxiliadora, 1 ,",09,093,6,18,2089,0,308 - María Auxiliadora - Francos Rodríguez,0,308,0,24,2024-02-18 15:04:20,-3.71346147,40.45772941,"(-3.71346147, 40.45772941)"
495,"Avenida de Guadalajara, 101,",20,204,1,23,2090,0,"510 - Avenida de Guadalajara, 101",0,510,0,24,2024-02-18 15:04:20,-3.61346199,40.42218968,"(-3.61346199, 40.42218968)"
496,"Calle Aquitania, 31,",20,204,24,3,2091,1,511 - Aquitania 31,0,511,0,27,2024-02-18 15:04:20,-3.61726728,40.41912347,"(-3.61726728, 40.41912347)"
497,"Calle de los Aparejadores, 24,",20,204,15,9,2092,2,"512 - Calle de los Aparejadores, 24",0,512,0,24,2024-02-18 15:04:20,-3.61537023,40.42667885,"(-3.61537023, 40.42667885)"
498,"Avenida de Niza, 9,",20,205,6,21,2093,0,"513 - Avenida de Niza, 9",0,513,0,27,2024-02-18 15:04:20,-3.60645414,40.4271211,"(-3.60645414, 40.4271211)"
499,"Calle Maria Sevilla Diago, 3,",20,205,11,13,2094,2,"514 - Maria Sevilla Diago, 3",0,514,0,24,2024-02-18 15:04:20,-3.61095077,40.43283006,"(-3.61095077, 40.43283006)"
500,"Avenida de Hellin, 13,",20,202,4,20,2095,0,"515 - Avenida de Hellin, 13",0,515,0,24,2024-02-18 15:04:20,-3.61579967,40.43091667,"(-3.61579967, 40.43091667)"
501,"Calle de El Toboso, 115,",11,113,11,12,2096,2,"359 - Calle de El Toboso, 115",0,359,0,23,2024-02-18 15:04:20,-3.7363397,40.3929901,"(-3.7363397, 40.3929901)"
502,"Avenida Nuestra Señora de Fatima, 34,",11,114,1,22,2097,0,"360 - Avda. Nuestra Señora de Fatima, 34",0,360,0,23,2024-02-18 15:04:20,-3.7470882,40.3840155,"(-3.7470882, 40.3840155)"
503,"Avenida de Abrantes, 108,",11,117,7,16,2098,0,"361 - Avenida de Abrantess, 108",0,361,0,23,2024-02-18 15:04:20,-3.73266666,40.37734672,"(-3.73266666, 40.37734672)"
504,"Avenida de Santa Eugenia, 9,",18,182,7,17,2099,0,"441 - Avenida de Santa Eugenia, 9",0,441,0,24,2024-02-18 15:04:20,-3.60948153,40.38600753,"(-3.60948153, 40.38600753)"
505,"Avenida del Mediterraneo, sn,",18,182,2,25,2100,0,"442 - Avenida del Mediterraneo, sn",0,442,0,27,2024-02-18 15:04:20,-3.60463,40.38305936,"(-3.60463, 40.38305936)"
506,"Calle Fuentespina, 33,",18,182,11,13,2101,2,"443 - Calle Fuentespina, 33",0,443,0,24,2024-02-18 15:04:20,-3.60724755,40.37941487,"(-3.60724755, 40.37941487)"
507,"Calle Hilario Herránz Establos , 36,",11,116,19,7,2102,1,362 - Hilario Herranz Establos 36,0,362,0,27,2024-02-18 15:04:20,-3.726638,40.372839,"(-3.726638, 40.372839)"
508,"Calle Rioja, 13,",21,211,8,16,2103,2,"557 - Calle Rioja, 13",0,557,0,24,2024-02-18 15:04:20,-3.58815143,40.45746674,"(-3.58815143, 40.45746674)"
509,"Calle Francisco Suárez, 28 ,",05,055,2,21,2104,0,290 - Francisco Suárez - Paseo de La Habana,0,290,0,23,2024-02-18 15:04:20,-3.67994416,40.46437817,"(-3.67994416, 40.46437817)"
510,"Calle de López de Hoyos, 478,",16,164,11,12,2105,2,"529 - Lopez de Hoyos , 478",0,529,0,23,2024-02-18 15:04:20,-3.649843,40.47175,"(-3.649843, 40.47175)"
511,"Calle de los Emigrantes, 15,",16,163,8,19,2106,0,"530 - Calle de los Emigrantes, 15",0,530,0,27,2024-02-18 15:04:20,-3.63788349,40.4685745,"(-3.63788349, 40.4685745)"
512,"Calle de Santa Virgilia, 6,",16,164,10,13,2107,2,"531 - Calle de Santa Virgilia, 6",0,531,0,23,2024-02-18 15:04:20,-3.6450741,40.4768782,"(-3.6450741, 40.4768782)"
513,"Avenida Barranquilla, 17,",16,164,7,17,2108,0,"532 - Avenida Barranquilla, 17",0,532,0,24,2024-02-18 15:04:20,-3.6395164,40.47490194,"(-3.6395164, 40.47490194)"
514,"Avenida de San Luis, 23,",16,164,5,18,2109,0,"533 - Avenida de San Luis, 23",0,533,0,23,2024-02-18 15:04:20,-3.65511455,40.47148748,"(-3.65511455, 40.47148748)"
515,"Calle Serrano nº 32,",04,041,4,15,2110,0,106 a - 106A - Plaza de Colón A,0,106 a,0,19,2024-02-18 15:04:20,-3.687807,40.424924,"(-3.687807, 40.424924)"
516,"Calle de la Isla Graciosa, 2,",08,086,5,19,2111,0,"582 -  Isla Graciosa, 2",0,582,0,24,2024-02-18 15:04:20,-3.6862657,40.49262243,"(-3.6862657, 40.49262243)"
517,"Calle de Angel Mugica, 3,",08,086,11,13,2112,2,"583 - Calle de Angel Mugica, 3",0,583,0,24,2024-02-18 15:04:20,-3.68529048,40.48468297,"(-3.68529048, 40.48468297)"
518,"Avenida Monasterio de Silos, 63A,",08,088,9,15,2113,2,"584 - Avenida Monasterio de Silos, 63A",0,584,0,24,2024-02-18 15:04:20,-3.69603345,40.50501029,"(-3.69603345, 40.50501029)"
519,"Calle Molins de Rey, 8,",08,086,12,11,2114,2,"585 - Molins de Rey, 8",0,585,0,23,2024-02-18 15:04:20,-3.69374813,40.4954662,"(-3.69374813, 40.4954662)"
520,"Calle Caldas de Estrach, 14,",08,086,2,21,2115,0,"586 - Caldas de Estrach, 14",0,586,0,23,2024-02-18 15:04:20,-3.6974725,40.4963916,"(-3.6974725, 40.4963916)"
521,"Calle de Mesena, 102,",16,165,9,15,2116,2,"534 - Calle de Mesena, 102",0,534,0,24,2024-02-18 15:04:20,-3.66340634,40.46772408,"(-3.66340634, 40.46772408)"
522,"Calle de las Delicias, 41 ,",02,026,8,11,2117,2,273 - Delicias - General Lacy,0,273,0,19,2024-02-18 15:04:20,-3.69091831,40.40381914,"(-3.69091831, 40.40381914)"
523,"Calle Costa Brava, 14,",08,087,7,20,2118,0,587 - Metro Paco de Lucía,0,587,0,27,2024-02-18 15:04:20,-3.70865744,40.49892399,"(-3.70865744, 40.49892399)"
524,"Av. del Campo de Calatrava, 17,",08,086,12,15,2119,2,588 - Campo de Calatrava - Ingenioso Hidalgo,0,588,0,27,2024-02-18 15:04:20,-3.69112254,40.50052161,"(-3.69112254, 40.50052161)"
525,"Avenida Monasterio de Silos, 37,",08,088,12,12,2120,2,589 - Monasterio Silos - M. Montesclaros,0,589,0,24,2024-02-18 15:04:20,-3.70290315,40.50340494,"(-3.70290315, 40.50340494)"
526,"Calle de Ramon Power, 8,",16,163,12,15,2121,2,"535 - Calle de Ramon Power, 8",0,535,0,27,2024-02-18 15:04:20,-3.634999,40.463575,"(-3.634999, 40.463575)"
527,"Calle de Cebreros, 97 ,",10,103,13,10,2122,2,"328 - Cebreros, 97",0,328,0,23,2024-02-18 15:04:20,-3.7521917,40.4032379,"(-3.7521917, 40.4032379)"
528,"Calle Alhambra, 56 ,",10,103,16,7,2123,2,329 - Metro Laguna,0,329,0,23,2024-02-18 15:04:20,-3.74445208,40.3988162,"(-3.74445208, 40.3988162)"
529,"Calle Duquesa de Parcent, 14 ,",10,104,22,1,2124,1,330 - Duquesa de Parcent - Marcelino Castillo,0,330,0,23,2024-02-18 15:04:20,-3.7447281,40.39500224,"(-3.7447281, 40.39500224)"
530,"Calle Valmojado, 33 ,",10,104,2,22,2125,0,"331 - Valmojado, 53",0,331,0,24,2024-02-18 15:04:20,-3.75757186,40.39649629,"(-3.75757186, 40.39649629)"
531,"Calle de los Yébenes, 159 ,",10,104,19,4,2126,1,"332 - Los Yébenes, 159",0,332,0,23,2024-02-18 15:04:20,-3.75181704,40.39302789,"(-3.75181704, 40.39302789)"
532,"Avenida de Oporto, 102,",11,112,10,13,2127,2,"363 - Avenida de Oporto, 102",0,363,0,23,2024-02-18 15:04:20,-3.72987333,40.38745087,"(-3.72987333, 40.38745087)"
533,"Avenida de Oporto, 34,",11,112,15,8,2128,2,"364 - Avenida de Oporto, 34 ",0,364,0,23,2024-02-18 15:04:20,-3.72378064,40.38550735,"(-3.72378064, 40.38550735)"
534,"Calle del Boj, 5,",16,161,22,1,2129,1,"536 - Calle del Boj, 5",0,536,0,23,2024-02-18 15:04:20,-3.6180818,40.4560204,"(-3.6180818, 40.4560204)"
535,"Avenida de Machupichu, 23,",16,162,12,15,2130,2,"537 - Avenida de Machupichu, 23",0,537,0,27,2024-02-18 15:04:20,-3.62579439,40.45841466,"(-3.62579439, 40.45841466)"
536,"Calle de Haendel, 8,",16,163,8,19,2131,0,"538 - Calle de Haendel, 8",0,538,0,27,2024-02-18 15:04:20,-3.62532131,40.46275082,"(-3.62532131, 40.46275082)"
537,"Calle Illescas, 104 ,",10,104,4,19,2132,0,333 - Illescas - Camarena,0,333,0,23,2024-02-18 15:04:20,-3.7562323,40.392175,"(-3.7562323, 40.392175)"
538,"Av de la plaza de Toros , 3,",11,114,20,3,2133,1,"365 - Av de la plaza de Toros , 3",0,365,0,23,2024-02-18 15:04:20,-3.73725908,40.38537202,"(-3.73725908, 40.38537202)"
539,"Paseo de Marcelino Camacho, 53B,",11,114,21,2,2134,1,"366 - Paseo de Marcelino Camacho, 53B",0,366,0,23,2024-02-18 15:04:20,-3.744521,40.387737,"(-3.744521, 40.387737)"
540,"Avenida Alfonso XIII, 113,",05,054,15,8,2135,2,291 - Plaza José María Soler,0,291,0,23,2024-02-18 15:04:20,-3.66790332,40.45866532,"(-3.66790332, 40.45866532)"
541,"Calle Pradillo, 33,",05,053,5,18,2136,0,292 - Centro Deportivo Municipal Pradillo,0,292,0,23,2024-02-18 15:04:20,-3.6717937,40.44904126,"(-3.6717937, 40.44904126)"
542,"Arturo Soria, 332,",15,159,8,15,2137,2,"494 - Arturo Soria, 332",0,494,0,23,2024-02-18 15:04:20,-3.666529,40.480694,"(-3.666529, 40.480694)"
543,"C Juan Ignacio Luca de Tena, 13,",20,208,9,18,2138,2,"516 - Juan Ignacio Luca de Tena, 13",0,516,0,27,2024-02-18 15:04:20,-3.63110255,40.44796778,"(-3.63110255, 40.44796778)"
544,"Eugenia de Montijo, 57,",11,115,0,15,2139,0,"368 - Eugenia de Montijo, 57",0,368,0,15,2024-02-18 15:04:20,-3.74706068,40.3791024,"(-3.74706068, 40.3791024)"
545,"Plaza de la Parroquia , 20,",11,115,1,22,2140,0,"369 - Plaza de la Parroquia , 20",0,369,0,23,2024-02-18 15:04:20,-3.7415832,40.3802446,"(-3.7415832, 40.3802446)"
546,"Calle de Avefria, 26,",11,115,19,4,2141,1,"370 - Calle de Avefria, 26",0,370,0,23,2024-02-18 15:04:20,-3.7308025,40.38386939,"(-3.7308025, 40.38386939)"
547,"Calle Maria de Maeztu, 50,",08,087,6,21,2142,0,590 - Metro Arroyofresno,0,590,0,27,2024-02-18 15:04:20,-3.72757227,40.49093014,"(-3.72757227, 40.49093014)"
548,"Calle San Mariano, 58,",20,207,1,26,2143,0,"517 - Calle San Mariano, 58",0,517,0,27,2024-02-18 15:04:20,-3.61190481,40.44175279,"(-3.61190481, 40.44175279)"
549,"Calle de Tampico, 71,",20,208,8,15,2144,2,"518 - Calle de Tampico, 71",0,518,0,23,2024-02-18 15:04:20,-3.635345,40.444569,"(-3.635345, 40.444569)"
550,"Calle Joaquin Turina, 49,",11,116,23,3,2145,1,"371 - Calle Joaquin Turina, 49",0,371,0,27,2024-02-18 15:04:20,-3.76182,40.372458,"(-3.76182, 40.372458)"
551,"Calle Lonja de la Seda, 33,",11,116,16,7,2146,2,"372 - Calle Lonja de la Seda, 33",0,372,0,23,2024-02-18 15:04:20,-3.76158263,40.36612215,"(-3.76158263, 40.36612215)"
552,"Calle Salvador Allende, 26,",11,116,13,10,2147,2,"373 - Calle Salvador Allende, 26",0,373,0,23,2024-02-18 15:04:20,-3.75787005,40.36277848,"(-3.75787005, 40.36277848)"
553,"Calle del Dinero, 38,",11,116,15,3,2148,2,"374 - Calle del Dinero, 38",0,374,0,10,2024-02-18 15:04:20,-3.7501466,40.3625707,"(-3.7501466, 40.3625707)"
554,"Calle Calderilla, 4,",11,116,24,3,2149,1,"375 - Calle Calderilla, 4",0,375,0,27,2024-02-18 15:04:20,-3.7386603,40.3651497,"(-3.7386603, 40.3651497)"
555,"Av.Ventisquero de la Condesa, 37,",08,087,3,16,2150,0,591 - Metro Mirasierra,0,591,0,19,2024-02-18 15:04:20,-3.71622921,40.49108225,"(-3.71622921, 40.49108225)"
556,"Calle de Gloria Fuertes, 180,",08,087,8,19,2151,0,592 - Estación de tren de Pitis,0,592,0,27,2024-02-18 15:04:20,-3.7249527,40.4956969,"(-3.7249527, 40.4956969)"
557,"Calle del Pinzon, 1A,",11,114,8,16,2152,2,"376 - Calle del Pinzon, 1A",0,376,0,24,2024-02-18 15:04:20,-3.7405438,40.39229225,"(-3.7405438, 40.39229225)"
558,"Av Abrantes, 55,",11,117,13,5,2153,1,"377 - Av Abrantes, 55",0,377,0,18,2024-02-18 15:04:20,-3.72783615,40.38091762,"(-3.72783615, 40.38091762)"
559,"Calle de Mota del Cuervo, 70,",16,163,11,13,2154,2,"539 - Calle de Mota del Cuervo, 70",0,539,0,24,2024-02-18 15:04:20,-3.63135715,40.4648762,"(-3.63135715, 40.4648762)"
560,"Calle Seseña, 93 ,",10,104,8,16,2155,2,334 - Metro Campamento,0,334,0,24,2024-02-18 15:04:20,-3.76815631,40.39497294,"(-3.76815631, 40.39497294)"
561,"Plaza Patricio, 5 ,",10,105,2,22,2156,0,"335 - Cardaño, 10",0,335,0,24,2024-02-18 15:04:20,-3.77057541,40.39659757,"(-3.77057541, 40.39659757)"
562,"Calle Troya, 11,",20,207,7,17,2157,0,"519 - Calle Troya, 11",0,519,0,24,2024-02-18 15:04:20,-3.61191521,40.43699597,"(-3.61191521, 40.43699597)"
563,"Calle Eugenia de Montijo, 83,",11,116,9,15,2158,2,"378 - Eugenia de Montijo, 83",0,378,0,24,2024-02-18 15:04:20,-3.7509733,40.37562288,"(-3.7509733, 40.37562288)"
564,"Calle Antonia Rodriguez Sacristan, 4,",11,116,15,9,2159,2,"379 - Antonia Rodriguez Sacristan, 4",0,379,0,24,2024-02-18 15:04:20,-3.74765739,40.37313777,"(-3.74765739, 40.37313777)"
565,"Calle Caleruega, 18,",15,159,5,19,2160,0,"495 - Calle Caleruega, 18",0,495,0,24,2024-02-18 15:04:20,-3.670588,40.478746,"(-3.670588, 40.478746)"
566,"Calle Islas Cies, 27,",08,083,14,10,2161,2,593 - Metro Avenida de la Ilustración,0,593,0,24,2024-02-18 15:04:20,-3.71869067,40.48027409,"(-3.71869067, 40.48027409)"
567,"Calle Pedro Rico, 49,",08,085,14,10,2162,2,"594 - Calle Pedro Rico, 49",0,594,0,24,2024-02-18 15:04:20,-3.703918,40.48194,"(-3.703918, 40.48194)"
568,"Avenida de Betanzos, 68,",08,084,11,13,2163,2,595 - Betanzos - Fermín Caballero,0,595,0,24,2024-02-18 15:04:20,-3.7132206,40.48178815,"(-3.7132206, 40.48178815)"
569,"Calle Ramon Gomez de la Serna, 37,",08,083,11,13,2164,2,596 - Metro Lacoma,0,596,0,24,2024-02-18 15:04:20,-3.72382554,40.48432751,"(-3.72382554, 40.48432751)"
570,"Calle de Dulce Chacon, sn,",16,166,12,12,2165,2,"540 - Calle de Dulce Chacon, sn",0,540,0,24,2024-02-18 15:04:20,-3.6636484,40.4845596,"(-3.6636484, 40.4845596)"
571,"Calle Oliva de Plasencia, 1,",10,107,7,17,2166,0,"336 - Calle Oliva de Plasencia, 1",0,336,0,24,2024-02-18 15:04:20,-3.77915183,40.37850071,"(-3.77915183, 40.37850071)"
572,"Calle Valmojado, 295,",10,104,10,8,2167,2,337 - Metro Aluche,0,337,0,18,2024-02-18 15:04:20,-3.76048923,40.38614104,"(-3.76048923, 40.38614104)"
573,"Calle Guareña, 22 ,",10,107,11,7,2168,2,338 - Guareña - Luis Chamizo,0,338,0,18,2024-02-18 15:04:20,-3.7653391035306005,40.386362337060476,"(-3.7653391035306005, 40.386362337060476)"
574,"Avenida de las Aguilas , 110,",10,107,1,23,2169,0,339 - Estación de tren Las Águilas,0,339,0,24,2024-02-18 15:04:20,-3.78061952,40.38132642,"(-3.78061952, 40.38132642)"
575,"Calle de la Foresta nº8,",08,086,8,15,2170,2,"597 - Foresta, 8",0,597,0,23,2024-02-18 15:04:20,-3.66777681,40.49853277,"(-3.66777681, 40.49853277)"
576,"Calle de José Gutiérrez Maroto, 33,",18,183,13,14,2171,2,"445 - Calle de José Gutiérrez Maroto, 33",0,445,0,27,2024-02-18 15:04:20,-3.60503564,40.36334587,"(-3.60503564, 40.36334587)"
577,"Calle La Cabrera, sn,",08,083,14,13,2172,2,599 - Instalación Deportiva La Cabrera,0,599,0,27,2024-02-18 15:04:20,-3.71920443,40.47223267,"(-3.71920443, 40.47223267)"
578,"Calle Fuente de Lima, 10,",10,107,16,7,2173,2,343 - Metro Aviación Española,0,343,0,23,2024-02-18 15:04:20,-3.78339301,40.38358975,"(-3.78339301, 40.38358975)"
579,"Calle Ocaña, 103,",10,104,17,6,2174,1,"344 - Ocaña, 103",0,344,0,23,2024-02-18 15:04:20,-3.75292035,40.38586273,"(-3.75292035, 40.38586273)"
580,"Paseo de Juan XXIII, 24,",09,093,6,21,2175,0,"313 - Juan XXIII, 24",0,313,0,27,2024-02-18 15:04:20,-3.7169359,40.448084,"(-3.7169359, 40.448084)"
581,"Avenida Valladolid, 47D ,",09,091,21,6,2176,1,"314 - Av. Valladolid, 47G - Pque. Bombilla",0,314,0,27,2024-02-18 15:04:20,-3.73068,40.42966,"(-3.73068, 40.42966)"
582,"Calle de Caroli, 1,",09,097,17,6,2177,1,"315 - Caroli, 1",0,315,0,23,2024-02-18 15:04:20,-3.784627,40.45862,"(-3.784627, 40.45862)"
583,"Calle Antonio Machado, s/n ,",09,094,1,18,2178,0,316 - CDM Ciudad De Los Poetas,0,316,0,19,2024-02-18 15:04:20,-3.71995383,40.46439687,"(-3.71995383, 40.46439687)"
584,"Calle Antonio Machado, 30,",09,094,13,14,2179,2,"317 - Antonio Machado, 30",0,317,0,27,2024-02-18 15:04:20,-3.71921712,40.46826955,"(-3.71921712, 40.46826955)"
585,"Calle Fuente del Tiro, 72 ,",10,107,3,21,2180,0,345 - Fuente del Tiro - Avd. de las Águilas,0,345,0,24,2024-02-18 15:04:20,-3.7798001,40.38308791,"(-3.7798001, 40.38308791)"
586,"Calle del Pico Chilegua, 3,",18,181,19,5,2182,1,"449 - Calle del Pico Chilegua, 3",0,449,0,24,2024-02-18 15:04:20,-3.61869106,40.37286701,"(-3.61869106, 40.37286701)"
587,"Calle Camino de las Hormigueras, 161,",18,181,20,4,2183,1,"450 - Calle Camino de las Hormigueras, 161",0,450,0,24,2024-02-18 15:04:20,-3.6370762,40.3762555,"(-3.6370762, 40.3762555)"
588,"Calle Clara del Rey, 17 ,",05,052,2,22,2184,0,294 - Edificio Torres Blancas,0,294,0,24,2024-02-18 15:04:20,-3.672339,40.440944,"(-3.672339, 40.440944)"
589,"Avenida del Camino de Santiago, 4,",08,086,9,14,2185,2,604 - Metro Las Tablas,0,604,0,23,2024-02-18 15:04:20,-3.66955215,40.50910428,"(-3.66955215, 40.50910428)"
590,"Calle de Jose de Cadalso, 62,",10,107,16,11,2186,2,"348 - Calle de Jose de Cadalso, 62",0,348,0,27,2024-02-18 15:04:20,-3.77024778,40.37959145,"(-3.77024778, 40.37959145)"
591,"Calle Enrique Garcia Alvarez, 5,",18,182,20,7,2187,1,"438 - Calle Enrique Garcia Alvarez, 5",0,438,0,27,2024-02-18 15:04:20,-3.6140607,40.3804482,"(-3.6140607, 40.3804482)"
592,"Calle de La Granja de San Ildefonso, 14,",18,183,21,6,2188,1,"451 - Calle de La Granja de San Ildefonso, 14",0,451,0,27,2024-02-18 15:04:20,-3.62283116,40.36813427,"(-3.62283116, 40.36813427)"
593,"Avenida de Las Suertes, 15,",18,183,3,20,2189,0,"452 - Avenida de Las Suertes, 15",0,452,0,23,2024-02-18 15:04:20,-3.6078539,40.3713613,"(-3.6078539, 40.3713613)"
594,"Avenida del Ensanche de Vallecas, 9,",18,183,7,20,2190,0,"453 - Avenida del Ensanche de Vallecas, 9",0,453,0,27,2024-02-18 15:04:20,-3.61253028,40.37043968,"(-3.61253028, 40.37043968)"
595,"Calle Gran Via del Sureste, 22,",18,183,5,22,2191,0,"454 - Gran Via del Sureste, 22",0,454,0,27,2024-02-18 15:04:20,-3.5897045,40.3631604,"(-3.5897045, 40.3631604)"
596,"Paseo de la Chopera, 31 ,Comunidad de Madrid España",02,023,10,13,2205,2,267 - Paseo de la Chopera - Fernando Poo,0,267,0,23,2024-02-18 15:04:20,-3.7003996647238746,40.39500000000003,"(-3.7003996647238746, 40.39500000000003)"
597,"Calle Rafaela Ybarra, 22,Comunidad de Madrid España",12,126,5,18,2207,0,"391 - Calle Rafaela Ybarra, 22",0,391,0,23,2024-02-18 15:04:20,-3.711296220901499,40.3817026328731,"(-3.711296220901499, 40.3817026328731)"
598,"c/ Ginzo de Limia, 47,",08,084,4,19,2214,0,"580 - Ginzo de Limia, 47",0,580,0,23,2024-02-18 15:04:20,-3.706904,40.48337,"(-3.706904, 40.48337)"
599,"Paseo de la Castellana nº 122,",05,051,9,14,2224,2,150 - Castellana - Hermanos Pinzón,0,150,0,23,2024-02-18 15:04:20,-3.6908,40.4491,"(-3.6908, 40.4491)"
600,"Paseo de la Castellana nº 164,Comunidad de Madrid España",05,055,11,12,2225,2,157 - Plaza de Cuzco,0,157,0,23,2024-02-18 15:04:20,-3.6894151,40.4591366,"(-3.6894151, 40.4591366)"
601,"Guetaria , 84b,",12,121,24,0,2226,1,395b - 395 - Guetaria  84b,0,395b,0,24,2024-02-18 15:04:20,-3.71569102,40.36916772,"(-3.71569102, 40.36916772)"
602,"548 - Eduardo Mazón 1,",16,161,3,19,2233,0,548 - Eduardo Mazón 1,0,548,0,22,2024-02-18 15:04:20,-3.6154157,40.4521484,"(-3.6154157, 40.4521484)"
